[{"code":"7300407","name":"Casa Memorială \"George Și Agatha Bacovia\"","geo":{"latitude":44.397006,"longitude":26.101241,"target":"Muzeu"}},{"code":"7300402","name":"Muzeul Memorial \"George Călinescu\"","geo":{"latitude":44.462162,"longitude":26.099546,"target":"Muzeu"}},{"code":"7300203","name":"Muzeul Național \"George Enescu\"","geo":{"latitude":44.448679,"longitude":26.0883,"target":"Muzeu"}},{"code":"7084102","name":"Muzeul Memorial \"Gheorghe Tattarescu\"","geo":{"latitude":44.433702,"longitude":26.095291,"target":"Muzeu"}},{"code":"7419300","name":"Muzeul Național De Istorie Naturală \"Grigore Antipa\"","geo":{"latitude":44.453113,"longitude":26.084638,"target":"Muzeu"}},{"code":"7300405","name":"Casa Memorială \"Ion Minulescu\"","geo":{"latitude":44.434678,"longitude":26.067039,"target":"Muzeu"}},{"code":"7300406","name":"Casa Memorială \"Liviu Rebreanu - Fanny Rebreanu\"","geo":{"latitude":44.434835,"longitude":26.067024,"target":"Muzeu"}},{"code":"7083501","name":"Colecția \"Maria Și Dr. George Severeanu\"","geo":{"latitude":44.447315,"longitude":26.092963,"target":"Muzeu"}},{"code":"7241100","name":"Colecția Memorială \"Maria Filotti\"","geo":{"latitude":44.435791,"longitude":26.083925,"target":"Muzeu"}},{"code":"5110000007","name":"Muzeul De Artă Veche Românească \"Mitropolit Antim Ivireanul\"","geo":{"latitude":44.426141,"longitude":26.093867,"target":"Muzeu"}},{"code":"7083509","name":"Muzeul De Artă Populară \"Prof. Dr. Nicolae Minovici\"","geo":{"latitude":44.484291,"longitude":26.075303,"target":"Muzeu"}},{"code":"7083504","name":"Muzeul Memorial \"Dr. Victor Babeș\"","geo":{"latitude":44.460065,"longitude":26.091329,"target":"Muzeu"}},{"code":"7300205","name":"Muzeul De Artă Veche Apuseană \"Ing. Dumitru Furnică-Minovici\"","geo":{"latitude":44.484256,"longitude":26.074651,"target":"Muzeu"}},{"code":"7084103","name":"Muzeul \"Frederic Storck Și Cecilia Cuțescu-Storck\"","geo":{"latitude":44.450912,"longitude":26.094471,"target":"Muzeu"}},{"code":"7520100","name":"Muzeul Național Tehnic \"Prof. Ing. Dimitrie Leonida\"","geo":{"latitude":44.417031,"longitude":26.096526,"target":"Muzeu"}},{"code":"7300401","name":"Casa Memorială \"Tudor Arghezi\"","geo":{"latitude":44.397172,"longitude":26.117717,"target":"Muzeu"}},{"code":"6201000003","name":"Colecția Muzeală A Arhiepiscopiei Armene","geo":{"latitude":44.43718,"longitude":26.110696,"target":"Muzeu"}},{"code":"7300201","name":"Muzeul Colecțiilor De Artă","geo":{"latitude":44.444643,"longitude":26.091097,"target":"Muzeu"}},{"code":"7083506","name":"Observatorul Astronomic \"Amiral Vasile Urseanu\"","geo":{"latitude":44.448646,"longitude":26.092815,"target":"Muzeu"}},{"code":"7419400","name":"Grădina Botanică \"Dimitrie Brandza\"","geo":{"latitude":44.4369,"longitude":26.066362,"target":"Muzeu"}},{"code":"7300202","name":"Centrul Cultural \"Palatele Brâncovenești\" Mogoșoaia","geo":{"latitude":44.52765,"longitude":25.992644,"target":"Muzeu"}},{"code":"7083500","name":"Muzeul Municipiului București","geo":{"latitude":44.434816,"longitude":26.102227,"target":"Muzeu"}},{"code":"7419100","name":"Muzeul Universității București","geo":{"latitude":44.435381,"longitude":26.082076,"target":"Muzeu"}},{"code":"51210001101","name":"Colecția Muzeală A Mănăstirii Ortodoxe Căldărușani","geo":{"latitude":44.675717,"longitude":26.266826,"target":"Muzeu"}},{"code":"7300500","name":"Muzeul Național Cotroceni","geo":{"latitude":44.435238,"longitude":26.063368,"target":"Muzeu"}},{"code":"7540200","name":"Muzeul Național Al Pompierilor","geo":{"latitude":44.440261,"longitude":26.120779,"target":"Muzeu"}},{"code":"752010011","name":"Muzeul Locomotivelor Cu Abur","geo":{"latitude":45.311836,"longitude":21.877426,"target":"Muzeu"}},{"code":"7300200","name":"Muzeul Național De Artă Al României","geo":{"latitude":44.439822,"longitude":26.095978,"target":"Muzeu"}},{"code":"7300600","name":"Muzeul Național Geologic","geo":{"latitude":44.454781,"longitude":26.085018,"target":"Muzeu"}},{"code":"7300100","name":"Muzeul Național De Istorie A României","geo":{"latitude":44.431407,"longitude":26.097453,"target":"Muzeu"}},{"code":"7510100","name":"Muzeul Militar Național \"Regele Ferdinand I\"","geo":{"latitude":44.441373,"longitude":26.076488,"target":"Muzeu"}},{"code":"88600201","name":"Muzeul Teatrului Național \"I.l. Caragiale\"","geo":{"latitude":44.436577,"longitude":26.103594,"target":"Muzeu"}},{"code":"51210004601","name":"Colecția Muzeală A Mănăstirii Ortodoxe Pasărea","geo":{"latitude":44.476316,"longitude":26.308634,"target":"Muzeu"}},{"code":"7300400","name":"Muzeul Național Al Literaturii Române","geo":{"latitude":44.445908,"longitude":26.093319,"target":"Muzeu"}},{"code":"88600101","name":"Muzeul Operei Naționale București","geo":{"latitude":44.436114,"longitude":26.079517,"target":"Muzeu"}},{"code":"7300350","name":"Muzeul Național Al Țăranului Român","geo":{"latitude":44.454533,"longitude":26.083949,"target":"Muzeu"}},{"code":"7570100","name":"Muzeul Căilor Ferate Române","geo":{"latitude":44.448291,"longitude":26.072885,"target":"Muzeu"}},{"code":"9000032","name":"Colecția Palatului Scroviștea","geo":{"latitude":44.719721,"longitude":26.029125,"target":"Muzeu"}},{"code":"7700100","name":"Muzeul Sportului Din România","geo":{"latitude":44.467955,"longitude":26.076658,"target":"Muzeu"}},{"code":"7083507","name":"Expoziția Permanentă Palatul Voievodal \"Curtea Veche\"","geo":{"latitude":44.429922,"longitude":26.101206,"target":"Muzeu"}},{"code":"7084101","name":"Muzeul \"Theodor Aman\"","geo":{"latitude":44.440246,"longitude":26.09818,"target":"Muzeu"}},{"code":"7300300","name":"Muzeul Național Al Satului \"Dimitrie Gusti\"","geo":{"latitude":44.470569,"longitude":26.077314,"target":"Muzeu"}},{"code":"51210006901","name":"Colecția Muzeală A Mănăstirii Ortodoxe Țigănești","geo":{"latitude":44.729032,"longitude":26.084255,"target":"Muzeu"}},{"code":"51210001201","name":"Colecția Muzeală A Mănăstirii Ortodoxe Cernica","geo":{"latitude":44.434929,"longitude":26.258245,"target":"Muzeu"}},{"code":"7100100","name":"Muzeul Memorial \"Avram Iancu\"","geo":{"latitude":46.35813,"longitude":22.858643,"target":"Muzeu"}},{"code":"7001600","name":"Colecția Arheologică Zlatna","geo":{"latitude":46.112973,"longitude":23.223715,"target":"Muzeu"}},{"code":"7101700","name":"Peștera Și Ghețarul De La Scărișoara","geo":{"latitude":46.489793,"longitude":22.810939,"target":"Muzeu"}},{"code":"7000700","name":"Muzeul De Istorie \"Augustin Bunea\"","geo":{"latitude":46.178441,"longitude":23.917816,"target":"Muzeu"}},{"code":"7000200","name":"Muzeul De Istorie","geo":{"latitude":46.310163,"longitude":23.717435,"target":"Muzeu"}},{"code":"7550200","name":"Muzeul Mineritului Aurifer","geo":{"latitude":46.303849,"longitude":23.114508,"target":"Muzeu"}},{"code":"7101500","name":"Muzeul Etnografic Râmetea","geo":{"latitude":46.452333,"longitude":23.567835,"target":"Muzeu"}},{"code":"7101100","name":"Muzeul Etnografic \"Pamfil Albu\"","geo":{"latitude":46.368526,"longitude":23.204426,"target":"Muzeu"}},{"code":"6900500","name":"Muzeul Național Al Unirii","geo":{"latitude":46.068318,"longitude":23.570656,"target":"Muzeu"}},{"code":"7000300","name":"Muzeul De Științele Naturii","geo":{"latitude":46.311108,"longitude":23.717548,"target":"Muzeu"}},{"code":"5141000004","name":"Muzeul De Artă Religioasă \"Reîntregirea\"","geo":{"latitude":46.068534,"longitude":23.569245,"target":"Muzeu"}},{"code":"51410004101","name":"Colecția Muzeală A Mănăstirii Râmeț","geo":{"latitude":46.301229,"longitude":23.521634,"target":"Muzeu"}},{"code":"7001500","name":"Muzeul Municipal \"Ioan Raica\"","geo":{"latitude":45.957894,"longitude":23.569639,"target":"Muzeu"}},{"code":"6902509","name":"Colecția De Carte Veche Și Icoane \"Ștefan Crișan\"","geo":{"latitude":46.087697,"longitude":21.692434,"target":"Muzeu"}},{"code":"6902506","name":"Colecția De Artă Și Casa Memorială Eugen Popa Și Eugenia Hagiu","geo":{"latitude":46.013314,"longitude":22.230374,"target":"Localitate"}},{"code":"6902503","name":"Muzeul Memorial \"Ioan Slavici Și Emil Monția\"","geo":{"latitude":46.266895,"longitude":21.637313,"target":"Stradă"}},{"code":"7104000","name":"Expoziția Memorială \"Adam Müller-Guttenbrunn\"","geo":{"latitude":46.070809,"longitude":21.553839,"target":"Muzeu"}},{"code":"6902505","name":"Muzeul De Artă Arad","geo":{"latitude":46.177054,"longitude":21.315867,"target":"Muzeu"}},{"code":"7003100","name":"Muzeul Orășenesc Lipova","geo":{"latitude":46.092263,"longitude":21.695,"target":"Muzeu"}},{"code":"516200011","name":"Colecția Muzeală A Mănăstirii \"Adormirea Maicii Domnului\" Hodoș-Bodrog","geo":{"latitude":46.133253,"longitude":21.183798,"target":"Muzeu"}},{"code":"6902500","name":"Complexul Muzeal Arad","geo":{"latitude":46.173994,"longitude":21.320904,"target":"Muzeu"}},{"code":"6902507","name":"Muzeul Viei Și Vinului","geo":{"latitude":46.137839,"longitude":21.604825,"target":"Localitate"}},{"code":"51620000101","name":"Colecția Muzeală A Mănăstirii \"Sf. Simion-Stâlpnicul\"","geo":{"latitude":46.217339,"longitude":21.274026,"target":"Muzeu"}},{"code":"6902501","name":"Colecția De Istorie A Teatrului, Muzicii Și Cinematografului \"Iosif Sârbuț\"","geo":{"latitude":46.176407,"longitude":21.315865,"target":"Muzeu"}},{"code":"7102300","name":"Colecția Muzeală Beliu","geo":{"latitude":46.492137,"longitude":21.985574,"target":"Muzeu"}},{"code":"7102400","name":"Muzeul Comunei Buteni","geo":{"latitude":46.328424,"longitude":22.120888,"target":"Muzeu"}},{"code":"7103100","name":"Punctul Muzeal Temeșești","geo":{"latitude":46.050996,"longitude":22.269877,"target":"Localitate"}},{"code":"6904504","name":"Casa Memorială \"Dinu Lipatti\"","geo":{"latitude":44.802448,"longitude":25.197311,"target":"Muzeu"}},{"code":"6904503","name":"Casa Memorială \"Liviu Rebreanu\"","geo":{"latitude":44.739531,"longitude":24.648745,"target":"Localitate"}},{"code":"6904500","name":"Muzeul Județean Argeș","geo":{"latitude":44.855465,"longitude":24.870948,"target":"Muzeu"}},{"code":"6904501","name":"Galeria De Artă \"Rudolf Schweitzer-Cumpăna\"","geo":{"latitude":44.858312,"longitude":24.869644,"target":"Muzeu"}},{"code":"51210001501","name":"Colecția Muzeală A Mănăstirii Ortodoxe Curtea De Argeș","geo":{"latitude":45.156947,"longitude":24.676654,"target":"Muzeu"}},{"code":"7004502","name":"Muzeul Municipal Câmpulung. Secția De Etnografie Și Artă Populară","geo":{"latitude":45.266167,"longitude":25.040762,"target":"Muzeu"}},{"code":"7104600","name":"Expoziția De Artă Feudală Domnești","geo":{"latitude":45.20726,"longitude":24.841281,"target":"Localitate"}},{"code":"7104800","name":"Muzeul Viticulturii Și Pomiculturii","geo":{"latitude":44.839464,"longitude":24.963463,"target":"Localitate"}},{"code":"7004700","name":"Muzeul Municipal Curtea De Argeș","geo":{"latitude":45.141298,"longitude":24.675567,"target":"Muzeu"}},{"code":"7004503","name":"Casa Memorială \"George Topârceanu\"","geo":{"latitude":45.293448,"longitude":25.09404,"target":"Localitate"}},{"code":"6904505","name":"Muzeul Și Rezervația Arheologică De La Castrul Roman Jidava (jidova)","geo":{"latitude":45.221059,"longitude":25.012348,"target":"Muzeu"}},{"code":"7004500","name":"Muzeul Municipal Câmpulung","geo":{"latitude":45.272919,"longitude":25.045329,"target":"Muzeu"}},{"code":"6904502","name":"Galeria De Artă Naivă","geo":{"latitude":44.854642,"longitude":24.871002,"target":"Muzeu"}},{"code":"7104500","name":"Peștera Dâmbovicioara","geo":{"latitude":45.444751,"longitude":25.223371,"target":"Muzeu"}},{"code":"7105700","name":"Muzeul Sătesc Teiu","geo":{"latitude":44.65512,"longitude":25.127679,"target":"Localitate"}},{"code":"7005300","name":"Grădina Zoologică Pitești","geo":{"latitude":44.855101,"longitude":24.825673,"target":"Muzeu"}},{"code":"6906502","name":"Casa Memorială \"George Bacovia\"","geo":{"latitude":46.569844,"longitude":26.908743,"target":"Muzeu"}},{"code":"6907101","name":"Casa Memorială \"Ion Borcea\"","geo":{"latitude":46.701743,"longitude":26.74351,"target":"Localitate"}},{"code":"7106600","name":"Expoziția Foto-Documentară \"Ion Ionescu De La Brad\"","geo":{"latitude":46.724346,"longitude":26.950778,"target":"Localitate"}},{"code":"6906506","name":"Observatorul Astronomic \"Victor Anestin\"","geo":{"latitude":46.565618,"longitude":26.904403,"target":"Muzeu"}},{"code":"7106700","name":"Expoziția Foto-Documentară \"Vasile Pârvan\"","geo":{"latitude":46.258553,"longitude":27.23798,"target":"Localitate"}},{"code":"6906501","name":"Muzeul De Artă Bacău","geo":{"latitude":46.566563,"longitude":26.906654,"target":"Muzeu"}},{"code":"6906500","name":"Complexul Muzeal \"Iulian Antonescu\"","geo":{"latitude":46.563838,"longitude":26.915264,"target":"Muzeu"}},{"code":"6907100","name":"Complexul Muzeal De Științele Naturii \"Ion Borcea\"","geo":{"latitude":46.558973,"longitude":26.904261,"target":"Muzeu"}},{"code":"7107101","name":"Muzeul De Etnografie Și Artă Contemporană \"Dimitrie N. Ghika Comănești\"","geo":{"latitude":46.420321,"longitude":26.446649,"target":"Muzeu"}},{"code":"7006500","name":"Muzeul De Istorie Buhuși","geo":{"latitude":46.718935,"longitude":26.697973,"target":"Muzeu"}},{"code":"7006900","name":"Muzeul Municipal De Istorie","geo":{"latitude":46.255254,"longitude":26.773167,"target":"Muzeu"}},{"code":"6906503","name":"Casa Memorială \"Nicu Enea\"","geo":{"latitude":46.572893,"longitude":26.91609,"target":"Muzeu"}},{"code":"7107100","name":"Colecția De Etnografie \"Preot Vasile Heisu\" - Răcăciuni","geo":{"latitude":46.331214,"longitude":27.005275,"target":"Muzeu"}},{"code":"7106800","name":"Complexul Muzeal \"Paul Țarălungă\"","geo":{"latitude":46.654436,"longitude":26.974816,"target":"Muzeu"}},{"code":"6907102","name":"Vivariul Bacău","geo":{"latitude":46.568895,"longitude":26.913405,"target":"Muzeu"}},{"code":"6908501","name":"Muzeul Memorial \"Ady Endre\"","geo":{"latitude":47.057932,"longitude":21.935142,"target":"Muzeu"}},{"code":"6908500","name":"Muzeul Țării Crișurilor","geo":{"latitude":47.049649,"longitude":21.923906,"target":"Muzeu"}},{"code":"7009500","name":"Muzeul Memorial \"Arany Janos\"","geo":{"latitude":46.802366,"longitude":21.663318,"target":"Muzeu"}},{"code":"6908503","name":"Colecția Muzeală De Istorie, Arheologie Și Etnografie A Văii Ierului","geo":{"latitude":47.353021,"longitude":22.098433,"target":"Muzeu"}},{"code":"69085020","name":"Muzeul Memorial \"Iosif Vulcan\"","geo":{"latitude":47.055926,"longitude":21.93329,"target":"Muzeu"}},{"code":"7108900","name":"Peștera Meziad","geo":{"latitude":46.762564,"longitude":22.472881,"target":"Muzeu"}},{"code":"520400076","name":"Colecția Muzeală A Episcopiei Romano-Catolice Oradea","geo":{"latitude":47.068785,"longitude":21.931319,"target":"Muzeu"}},{"code":"5143000004","name":"Colecția Muzeală A Episcopiei Ortodoxe","geo":{"latitude":47.058783,"longitude":21.93318,"target":"Muzeu"}},{"code":"7108300","name":"Peștera Urșilor","geo":{"latitude":46.553915,"longitude":22.569324,"target":"Muzeu"}},{"code":"7008500","name":"Muzeul Municipal Beiuș","geo":{"latitude":46.666942,"longitude":22.347759,"target":"Muzeu"}},{"code":"7109900","name":"Peștera Vadu Crișului","geo":{"latitude":46.962407,"longitude":22.511209,"target":"Muzeu"}},{"code":"7009100","name":"Grădina Zoologică Oradea","geo":{"latitude":47.050073,"longitude":21.917044,"target":"Muzeu"}},{"code":"6910501","name":"Muzeul Memorial \"George Coșbuc\"","geo":{"latitude":47.36473,"longitude":24.39075,"target":"Muzeu"}},{"code":"6910503","name":"Muzeul Memorial \"Ion Pop Reteganul\"","geo":{"latitude":47.192235,"longitude":24.011194,"target":"Muzeu"}},{"code":"6910502","name":"Muzeul Memorial \"Liviu Rebreanu\"","geo":{"latitude":47.283368,"longitude":24.411616,"target":"Localitate"}},{"code":"6910500","name":"Complexul Muzeal Bistrița-Năsăud","geo":{"latitude":47.136317,"longitude":24.503313,"target":"Muzeu"}},{"code":"7010900","name":"Muzeul Grăniceresc Năsăudean","geo":{"latitude":47.283896,"longitude":24.410043,"target":"Muzeu"}},{"code":"7110600","name":"Muzeul \"Cuibul Visurilor\"","geo":{"latitude":47.402288,"longitude":24.740305,"target":"Muzeu"}},{"code":"7012700","name":"Muzeul Memorial \"George Enescu\"","geo":{"latitude":47.95824,"longitude":26.390704,"target":"Muzeu"}},{"code":"7012800","name":"Casa Memorială \"George Enescu\"","geo":{"latitude":48.043637,"longitude":26.478923,"target":"Muzeu"}},{"code":"6912503","name":"Memorialul Ipotești - Centrul Național De Studii \"Mihai Eminescu\"","geo":{"latitude":47.766161,"longitude":26.557775,"target":"Muzeu"}},{"code":"6912501","name":"Casa Memorială \"Nicolae Iorga\"","geo":{"latitude":47.73794,"longitude":26.663014,"target":"Muzeu"}},{"code":"7013500","name":"Muzeul De Arheologie Săveni","geo":{"latitude":47.957193,"longitude":26.857753,"target":"Stradă"}},{"code":"6912500","name":"Muzeul Județean Botoșani","geo":{"latitude":47.744894,"longitude":26.660775,"target":"Stradă"}},{"code":"6912505","name":"Muzeul De Etnografie Botoșani","geo":{"latitude":47.74457,"longitude":26.658921,"target":"Stradă"}},{"code":"7012900","name":"Muzeul De Științele Naturii Dorohoi","geo":{"latitude":47.953455,"longitude":26.390628,"target":"Muzeu"}},{"code":"6914510","name":"Muzeul \"Prima Școală Românească\"","geo":{"latitude":45.635842,"longitude":25.581191,"target":"Muzeu"}},{"code":"6914502","name":"Muzeul De Artă Brașov","geo":{"latitude":45.645004,"longitude":25.593788,"target":"Muzeu"}},{"code":"6914500","name":"Muzeul Județean De Istorie Brașov","geo":{"latitude":45.642298,"longitude":25.588814,"target":"Muzeu"}},{"code":"6914501","name":"Bastionul Țesătorilor","geo":{"latitude":45.636876,"longitude":25.588983,"target":"Muzeu"}},{"code":"6914700","name":"Castelul Bran","geo":{"latitude":45.515135,"longitude":25.367212,"target":"Muzeu"}},{"code":"51440001101","name":"Colecția Mitropolit Antonie Plămădeală - Mănăstirea Brâncoveanu","geo":{"latitude":45.69003,"longitude":24.794723,"target":"Muzeu"}},{"code":"6914509","name":"Muzeul De Etnografie Brașov","geo":{"latitude":45.645072,"longitude":25.593439,"target":"Muzeu"}},{"code":"6914508","name":"Muzeul De Etnografie \"Gheorghe Cernea\"","geo":{"latitude":46.03753,"longitude":25.219714,"target":"Muzeu"}},{"code":"6914506","name":"Muzeul Etnografic Săcele","geo":{"latitude":45.615045,"longitude":25.677574,"target":"Muzeu"}},{"code":"7014900","name":"Muzeul Țării Făgărașului \"Valer Literat\"","geo":{"latitude":45.845311,"longitude":24.973727,"target":"Muzeu"}},{"code":"5501020002","name":"Colecția Muzeală De Argintărie A Casei Parohiale Evanghelice Brașov","geo":{"latitude":45.641062,"longitude":25.587505,"target":"Muzeu"}},{"code":"6914503","name":"Muzeul \"Casa Mureșenilor\"","geo":{"latitude":45.642438,"longitude":25.588442,"target":"Muzeu"}},{"code":"7114200","name":"Punct Muzeistic Etnografic Breaza","geo":{"latitude":45.7046,"longitude":24.881161,"target":"Localitate"}},{"code":"7114300","name":"Muzeul Etnografic Sătesc Bunești","geo":{"latitude":46.107286,"longitude":25.05988,"target":"Localitate"}},{"code":"7114500","name":"Punct Muzeal Comana De Jos","geo":{"latitude":45.911811,"longitude":25.235419,"target":"Localitate"}},{"code":"7114600","name":"Punct Muzeal Cuciulata","geo":{"latitude":45.944549,"longitude":25.27364,"target":"Localitate"}},{"code":"7115900","name":"Muzeul Satului Vlădeni","geo":{"latitude":45.766706,"longitude":25.368747,"target":"Muzeu"}},{"code":"7014500","name":"Grădina Zoologică Brașov","geo":{"latitude":45.614197,"longitude":25.633172,"target":"Muzeu"}},{"code":"6916504","name":"Casa Memorială \"D. P. Perpessicius\"","geo":{"latitude":45.277045,"longitude":27.979159,"target":"Stradă"}},{"code":"6916507","name":"Expoziția Memorială \"Moș Dumitru\"","geo":{"latitude":45.322647,"longitude":27.907995,"target":"Muzeu"}},{"code":"6916503","name":"Casa Memorială \"Panait Istrati\"","geo":{"latitude":45.273795,"longitude":27.978909,"target":"Muzeu"}},{"code":"6916505","name":"Muzeul Brăilei. Centrul Cultural \"Nicăpetre\"","geo":{"latitude":45.272067,"longitude":27.976846,"target":"Muzeu"}},{"code":"6916502","name":"Muzeul Brăilei. Secția De Etnografie Și Artă Populară","geo":{"latitude":45.274165,"longitude":27.979105,"target":"Muzeu"}},{"code":"6916500","name":"Muzeul Brăilei \"Carol I\"","geo":{"latitude":45.272038,"longitude":27.974219,"target":"Muzeu"}},{"code":"6916501","name":"Muzeul Brăilei. Secția De Științele Naturii","geo":{"latitude":45.254789,"longitude":27.947222,"target":"Muzeu"}},{"code":"6918500","name":"Muzeul Județean Buzău","geo":{"latitude":45.149565,"longitude":26.805154,"target":"Muzeu"}},{"code":"51220001101","name":"Colecția Muzeală A Mănăstirii Ortodoxe Ciolanu","geo":{"latitude":45.235591,"longitude":26.546937,"target":"Muzeu"}},{"code":"6918501","name":"Colecția De Etnografie Și Artă Populară \"Casa Vergu - Mănăilă\"","geo":{"latitude":45.148752,"longitude":26.823743,"target":"Muzeu"}},{"code":"6918504","name":"Colecția Muzeală Cotorca","geo":{"latitude":44.821505,"longitude":26.823622,"target":"Localitate"}},{"code":"6918503","name":"Colecția Muzeală Colți (muzeul Chihlimbarului)","geo":{"latitude":45.376871,"longitude":26.391148,"target":"Muzeu"}},{"code":"512200000","name":"Colecția Muzeală A Episcopiei Ortodoxe Buzău","geo":{"latitude":45.157151,"longitude":26.819793,"target":"Muzeu"}},{"code":"7019200","name":"Muzeul Municipal \"Octavian Moșescu\" Din Râmnicu Sărat\"","geo":{"latitude":45.380883,"longitude":27.04398,"target":"Stradă"}},{"code":"7211100","name":"Colecția De Mineralogie Estetică A Fierului \"Constantin Gruescu\"","geo":{"latitude":45.34172,"longitude":21.776167,"target":"Localitate"}},{"code":"5161050003","name":"Colecția De Artă Veche Bisericească","geo":{"latitude":45.290235,"longitude":21.89443,"target":"Stradă"}},{"code":"6920500","name":"Muzeul Banatului Montan","geo":{"latitude":45.323904,"longitude":21.878031,"target":"Muzeu"}},{"code":"6920503","name":"Muzeul Județean De Etnografie Și Al Regimentului De Graniță","geo":{"latitude":45.414399,"longitude":22.213844,"target":"Muzeu"}},{"code":"6920501","name":"Muzeul Stațiunii Băile Herculane","geo":{"latitude":44.887984,"longitude":22.424937,"target":"Muzeu"}},{"code":"6920504","name":"Muzeul Farmaciei Montanistice, Oravița","geo":{"latitude":45.038398,"longitude":21.714702,"target":"Muzeu"}},{"code":"6920502","name":"Muzeul De Istorie Al Teatrului Vechi Și Al Culturii Cărășene","geo":{"latitude":45.040646,"longitude":21.718419,"target":"Muzeu"}},{"code":"5161010002","name":"Colecția Episcopiei Ortodoxe A Caransebeșului","geo":{"latitude":45.411144,"longitude":22.219083,"target":"Stradă"}},{"code":"7020501","name":"Expoziția Arheologică A Sitului Roman Tibiscum","geo":{"latitude":45.460964,"longitude":22.185669,"target":"Localitate"}},{"code":"6922503","name":"Casa Memorială \"Alexandru Sahia\"","geo":{"latitude":44.213113,"longitude":26.900968,"target":"Muzeu"}},{"code":"6922502","name":"Muzeul Civilizației Gumelnița","geo":{"latitude":44.085999,"longitude":26.636797,"target":"Muzeu"}},{"code":"6922500","name":"Muzeul Dunării De Jos","geo":{"latitude":44.191562,"longitude":27.329299,"target":"Muzeu"}},{"code":"7120300","name":"Muzeul Sătesc Bănia","geo":{"latitude":44.876821,"longitude":22.043701,"target":"Localitate"}},{"code":"7120700","name":"Muzeul Sătesc Gornea","geo":{"latitude":44.680906,"longitude":21.854966,"target":"Localitate"}},{"code":"7121100","name":"Muzeul Sătesc Mehadica","geo":{"latitude":45.03981,"longitude":22.264035,"target":"Localitate"}},{"code":"7124500","name":"Muzeul Memorial \"Octavian Goga\"","geo":{"latitude":46.949068,"longitude":22.814978,"target":"Muzeu"}},{"code":"7411200","name":"Grădina Botanică \"Alexandru Borza\" Și Muzeul Botanic","geo":{"latitude":46.76236,"longitude":23.589141,"target":"Muzeu"}},{"code":"7024900","name":"Muzeul Municipal Dej","geo":{"latitude":47.142581,"longitude":23.874015,"target":"Muzeu"}},{"code":"7024600","name":"Muzeul Etnografic Al Transilvaniei","geo":{"latitude":46.76922,"longitude":23.586402,"target":"Muzeu"}},{"code":"7025200","name":"Muzeul De Istorie Gherla","geo":{"latitude":47.029481,"longitude":23.909004,"target":"Muzeu"}},{"code":"7025700","name":"Muzeul De Istorie Turda","geo":{"latitude":46.571952,"longitude":23.784469,"target":"Muzeu"}},{"code":"6924500","name":"Muzeul Național De Istorie A Transilvaniei","geo":{"latitude":46.771508,"longitude":23.586272,"target":"Muzeu"}},{"code":"6924501","name":"Colecția De Istorie A Farmaciei","geo":{"latitude":46.771045,"longitude":23.589824,"target":"Muzeu"}},{"code":"7024601","name":"Parcul Etnografic \"Romulus Vuia\"","geo":{"latitude":46.777476,"longitude":23.55405,"target":"Muzeu"}},{"code":"7024500","name":"Muzeul De Artă Cluj-Napoca","geo":{"latitude":46.770611,"longitude":23.59049,"target":"Muzeu"}},{"code":"51420002101","name":"Colecția Muzeală A Mănăstirii Nicula","geo":{"latitude":47.002054,"longitude":23.956978,"target":"Muzeu"}},{"code":"51210017502","name":"Colecția Muzeală A Mitropoliei Ortodoxe Cluj","geo":{"latitude":46.77161,"longitude":23.59648,"target":"Stradă"}},{"code":"7025800","name":"Grădina Zoologică Turda","geo":{"latitude":46.575307,"longitude":23.810138,"target":"Muzeu"}},{"code":"7411100","name":"Muzeul Zoologic Al Universității \"Babeș-Bolyai\"","geo":{"latitude":46.763989,"longitude":23.579971,"target":"Muzeu"}},{"code":"7026502","name":"Muzeul De Artă \"Dinu Și Sevasta Vintilă\"","geo":{"latitude":44.544149,"longitude":28.047376,"target":"Localitate"}},{"code":"7026501","name":"Muzeul De Sculptură \"Ion Jalea\"","geo":{"latitude":44.170589,"longitude":28.660503,"target":"Muzeu"}},{"code":"6926503","name":"Complexul Muzeal Histria","geo":{"latitude":44.54588,"longitude":28.770447,"target":"Muzeu"}},{"code":"7026503","name":"Colecția De Artă Limanu","geo":{"latitude":43.796721,"longitude":28.530292,"target":"Localitate"}},{"code":"7026500","name":"Muzeul De Artă Constanța","geo":{"latitude":44.179068,"longitude":28.651487,"target":"Muzeu"}},{"code":"70265051","name":"Muzeul De Artă \"Lucian Grigorescu\"","geo":{"latitude":44.246897,"longitude":28.268063,"target":"Muzeu"}},{"code":"6927105","name":"Observatorul Astronomic Constanța","geo":{"latitude":44.206544,"longitude":28.642581,"target":"Muzeu"}},{"code":"6926502","name":"Muzeul De Arheologie \"Callatis\"","geo":{"latitude":43.816043,"longitude":28.583729,"target":"Muzeu"}},{"code":"7026504","name":"Muzeul De Artă Populară Constanța","geo":{"latitude":44.176352,"longitude":28.654913,"target":"Muzeu"}},{"code":"7511100","name":"Muzeul Marinei Române","geo":{"latitude":44.174852,"longitude":28.648485,"target":"Muzeu"}},{"code":"7510110","name":"Muzeul Militar Național \"Regele Ferdinand I\". Filiala Constanța","geo":{"latitude":44.149935,"longitude":28.623087,"target":"Muzeu"}},{"code":"6301770011","name":"Colecția Muzeală A Geamiei Medgidia","geo":{"latitude":44.245537,"longitude":28.270726,"target":"Muzeu"}},{"code":"6926500","name":"Muzeul De Istorie Națională Și Arheologie","geo":{"latitude":44.17388,"longitude":28.658222,"target":"Muzeu"}},{"code":"6927100","name":"Complexul Muzeal De Științe Ale Naturii","geo":{"latitude":44.205516,"longitude":28.642761,"target":"Muzeu"}},{"code":"6926501","name":"Edificiul Roman Cu Mozaic","geo":{"latitude":44.173168,"longitude":28.658368,"target":"Muzeu"}},{"code":"6927103","name":"Muzeul Mării","geo":{"latitude":44.205516,"longitude":28.642761,"target":"Muzeu"}},{"code":"6927101","name":"Acvariul Constanța","geo":{"latitude":44.170901,"longitude":28.663195,"target":"Muzeu"}},{"code":"6301000002","name":"Colecția Moscheii Carol I","geo":{"latitude":44.173413,"longitude":28.659656,"target":"Muzeu"}},{"code":"6301000003","name":"Geamia \"Esmahan Sultan\"","geo":{"latitude":43.810477,"longitude":28.582989,"target":"Muzeu"}},{"code":"6927104","name":"Planetariul Constanța","geo":{"latitude":44.206863,"longitude":28.64293,"target":"Muzeu"}},{"code":"6926504","name":"Complexul Muzeal \"Tropaeum Traiani\" Adamclisi","geo":{"latitude":44.085265,"longitude":27.952126,"target":"Muzeu"}},{"code":"6928501","name":"Galeria De Artă \"Gyárfás Jenó\"","geo":{"latitude":45.866623,"longitude":25.787069,"target":"Muzeu"}},{"code":"6928504","name":"Muzeul Etnografic \"Haszmann Pál\"","geo":{"latitude":45.965801,"longitude":26.023303,"target":"Muzeu"}},{"code":"6928505","name":"Muzeul Breslelor \"Incze László\"","geo":{"latitude":46.002099,"longitude":26.138441,"target":"Localitate"}},{"code":"6928502","name":"Muzeul Depresiunii Baraolt","geo":{"latitude":46.074653,"longitude":25.597364,"target":"Muzeu"}},{"code":"6928500","name":"Muzeul Național Secuiesc","geo":{"latitude":45.861916,"longitude":25.786113,"target":"Muzeu"}},{"code":"6930507","name":"Casa - Atelier \"Gabriel Popescu\"","geo":{"latitude":45.028865,"longitude":25.398436,"target":"Muzeu"}},{"code":"6930506","name":"Casa-Atelier \"Gheorghe Petrașcu\"","geo":{"latitude":44.933593,"longitude":25.452193,"target":"Muzeu"}},{"code":"6930508","name":"Casa Memorială \"I. C. Vissarion\"","geo":{"latitude":44.648763,"longitude":25.483819,"target":"Localitate"}},{"code":"6930509","name":"Casa Memorială \"Ion Luca Caragiale\"","geo":{"latitude":44.909639,"longitude":25.702437,"target":"Muzeu"}},{"code":"6930503","name":"Ansamblul Brâncovenesc De La Potlogi","geo":{"latitude":44.564319,"longitude":25.588091,"target":"Muzeu"}},{"code":"6930512","name":"Muzeul De Artă Târgoviște","geo":{"latitude":44.930802,"longitude":25.460069,"target":"Muzeu"}},{"code":"6930500","name":"Complexul Național Muzeal \"Curtea Domnească\"","geo":{"latitude":44.932384,"longitude":25.458154,"target":"Muzeu"}},{"code":"6930511","name":"Muzeul De Etnografie Pucioasa","geo":{"latitude":45.077909,"longitude":25.433466,"target":"Localitate"}},{"code":"6930501","name":"Muzeul De Istorie","geo":{"latitude":44.93037,"longitude":25.460449,"target":"Muzeu"}},{"code":"7131100","name":"Peștera Ialomicioara","geo":{"latitude":45.393889,"longitude":25.437778,"target":"Muzeu"}},{"code":"6930504","name":"Muzeul Scriitorilor Dâmbovițeni","geo":{"latitude":44.92984,"longitude":25.463893,"target":"Muzeu"}},{"code":"6930505","name":"Muzeul Tiparului Și Al Cărții Vechi Românești","geo":{"latitude":44.929808,"longitude":25.463881,"target":"Muzeu"}},{"code":"6930513","name":"Galeriile De Artă Stelea","geo":{"latitude":44.928812,"longitude":25.461272,"target":"Muzeu"}},{"code":"51210017501","name":"Colecția Muzeală A Mănăstirii Ortodoxe Viforâta","geo":{"latitude":44.973633,"longitude":25.465566,"target":"Muzeu"}},{"code":"7130300","name":"Punct Muzeal Bezdead","geo":{"latitude":45.149719,"longitude":25.516924,"target":"Localitate"}},{"code":"7130900","name":"Punct Muzeal Malu Cu Flori","geo":{"latitude":45.149725,"longitude":25.219086,"target":"Localitate"}},{"code":"7131200","name":"Punct Muzeal Moțăieni","geo":{"latitude":45.099853,"longitude":25.416542,"target":"Muzeu"}},{"code":"7131300","name":"Muzeul Etnografic Pietroșița","geo":{"latitude":45.183255,"longitude":25.436656,"target":"Muzeu"}},{"code":"7131400","name":"Punct Muzeal Pucheni","geo":{"latitude":45.183169,"longitude":25.275442,"target":"Muzeu"}},{"code":"7131600","name":"Punct Muzeal Râu Alb","geo":{"latitude":45.147266,"longitude":25.341613,"target":"Localitate"}},{"code":"7131500","name":"Punct Muzeal Răzvad","geo":{"latitude":44.935754,"longitude":25.532976,"target":"Localitate"}},{"code":"7131900","name":"Punct Muzeal Viișoara","geo":{"latitude":44.879974,"longitude":25.426718,"target":"Localitate"}},{"code":"6930514","name":"Colecția Complexului Catedralei Arhiepiscopale - Mitropolia Târgoviște","geo":{"latitude":44.925673,"longitude":25.45963,"target":"Muzeu"}},{"code":"6932504","name":"Casa Memorială \"Elena Farago\"","geo":{"latitude":44.315667,"longitude":23.796566,"target":"Muzeu"}},{"code":"7032900","name":"Muzeul De Artă Craiova","geo":{"latitude":44.319058,"longitude":23.795048,"target":"Muzeu"}},{"code":"7051501","name":"Muzeul Satului Maramureșean","geo":{"latitude":47.919751,"longitude":23.930252,"target":"Muzeu"}},{"code":"51420004101","name":"Colecția Muzeală A Mănăstirii Rohia","geo":{"latitude":47.410941,"longitude":23.882878,"target":"Muzeu"}},{"code":"7151100","name":"Colecția Muzeală Sătească Lăpuș","geo":{"latitude":47.494066,"longitude":24.007681,"target":"Localitate"}},{"code":"7050700","name":"Grădina Zoologică Baia Mare","geo":{"latitude":47.668216,"longitude":23.574656,"target":"Muzeu"}},{"code":"6952501","name":"Expoziția \"Hidrocentrala Porțile De Fier\"","geo":{"latitude":44.625311,"longitude":22.666512,"target":"Muzeu"}},{"code":"6952500","name":"Muzeul Regiunii Porților De Fier","geo":{"latitude":44.62493,"longitude":22.666472,"target":"Muzeu"}},{"code":"6952505","name":"Muzeul De Artă Drobeta-Turnu Severin","geo":{"latitude":44.625214,"longitude":22.655846,"target":"Muzeu"}},{"code":"7057500","name":"Parcul Zoologic Piatra Neamț","geo":{"latitude":46.93601,"longitude":26.364697,"target":"Muzeu"}},{"code":"9000038","name":"Casa Memorială \"Nicolae Titulescu\"","geo":{"latitude":44.279958,"longitude":24.751778,"target":"Muzeu"}},{"code":"7058700","name":"Muzeul De Arheologie Și Etnografie Corabia","geo":{"latitude":43.775281,"longitude":24.502816,"target":"Muzeu"}},{"code":"7058501","name":"Muzeul Romanațiului. Secția De Artă Plastică","geo":{"latitude":44.113377,"longitude":24.345785,"target":"Muzeu"}},{"code":"6962500","name":"Muzeul Județean Satu Mare","geo":{"latitude":47.792774,"longitude":22.882319,"target":"Muzeu"}},{"code":"7062500","name":"Muzeul Municipiului Carei","geo":{"latitude":47.683982,"longitude":22.466778,"target":"Muzeu"}},{"code":"6962501","name":"Muzeul Țării Oașului","geo":{"latitude":47.868765,"longitude":23.429923,"target":"Muzeu"}},{"code":"6962503","name":"Muzeul Țării Codrului","geo":{"latitude":47.718425,"longitude":23.188402,"target":"Muzeu"}},{"code":"5144000005","name":"Muzeul De Etnografie Și Artă Bisericească \"Ioan Stoica\"","geo":{"latitude":45.754685,"longitude":23.9264,"target":"Localitate"}},{"code":"7011300","name":"Muzeul De Artă Comparată","geo":{"latitude":47.369456,"longitude":24.673146,"target":"Muzeu"}},{"code":"6956519","name":"Expoziția \"Curtea Domnească\" Piatra-Neamț","geo":{"latitude":46.933021,"longitude":26.369473,"target":"Muzeu"}},{"code":"6956518","name":"Galeria De Artă \"Lascăr Vorel\"","geo":{"latitude":46.931395,"longitude":26.371914,"target":"Muzeu"}},{"code":"7058600","name":"Colecția De Arheologie Și Etnografie Piatra-Olt","geo":{"latitude":44.367628,"longitude":24.259805,"target":"Localitate"}},{"code":"7159500","name":"Colecția Etnografică Și De Artă Populară Chilia-Făgețelu","geo":{"latitude":44.773279,"longitude":24.574518,"target":"Localitate"}},{"code":"7032500","name":"Muzeul Câmpiei Băileștilor","geo":{"latitude":44.026695,"longitude":23.343663,"target":"Stradă"}},{"code":"6932501","name":"Muzeul Olteniei. Secția De Etnografie \"Casa Băniei\"","geo":{"latitude":44.314554,"longitude":23.79229,"target":"Muzeu"}},{"code":"6932500","name":"Muzeul Olteniei","geo":{"latitude":44.31857,"longitude":23.79354,"target":"Muzeu"}},{"code":"88400201","name":"Muzeul Teatrului Național \"Marin Sorescu\"","geo":{"latitude":44.31901,"longitude":23.799152,"target":"Muzeu"}},{"code":"6932600","name":"Muzeul Olteniei. Secția De Științele Naturii","geo":{"latitude":44.318609,"longitude":23.793444,"target":"Muzeu"}},{"code":"5150000003","name":"Colecția Muzeală A Mitropoliei Ortodoxe A Olteniei","geo":{"latitude":44.315004,"longitude":23.798687,"target":"Muzeu"}},{"code":"7032700","name":"Muzeul De Artă Și Etnografie","geo":{"latitude":43.994388,"longitude":22.931896,"target":"Muzeu"}},{"code":"7132050","name":"Muzeul Sătesc Bechet","geo":{"latitude":43.785234,"longitude":23.961985,"target":"Localitate"}},{"code":"7132300","name":"Muzeul Sătesc Celaru","geo":{"latitude":44.044799,"longitude":24.137485,"target":"Localitate"}},{"code":"7132350","name":"Muzeul Sătesc Cernătești","geo":{"latitude":44.449182,"longitude":23.433549,"target":"Localitate"}},{"code":"7033000","name":"Grădina Zoologică Craiova","geo":{"latitude":44.301602,"longitude":23.80612,"target":"Muzeu"}},{"code":"6934504","name":"Casa Memorială \"Costache Negri\"","geo":{"latitude":45.704239,"longitude":27.720737,"target":"Muzeu"}},{"code":"6934500","name":"Muzeul De Istorie \"Paul Păltănea\"","geo":{"latitude":45.437449,"longitude":28.055371,"target":"Muzeu"}},{"code":"6934501","name":"Complexul Muzeal De Științele Naturii \"Răzvan Angheluță\"","geo":{"latitude":45.419041,"longitude":28.032066,"target":"Muzeu"}},{"code":"7035400","name":"Muzeul De Istorie \"Teodor Cincu\" Tecuci","geo":{"latitude":45.843968,"longitude":27.431749,"target":"Muzeu"}},{"code":"6934502","name":"Muzeul De Artă Vizuală","geo":{"latitude":45.451028,"longitude":28.050249,"target":"Muzeu"}},{"code":"7034700","name":"Grădina Zoologică Galați","geo":{"latitude":45.564683,"longitude":28.010093,"target":"Muzeu"}},{"code":"6936502","name":"Muzeul Județean \"Teohari Antonescu\". Secția De Etnografie Și Artă Populară","geo":{"latitude":43.895169,"longitude":25.967391,"target":"Muzeu"}},{"code":"6936500","name":"Muzeul Județean \"Teohari Antonescu\"","geo":{"latitude":43.886406,"longitude":25.963587,"target":"Muzeu"}},{"code":"7423213","name":"Muzeul Sătesc Frătești","geo":{"latitude":43.96912,"longitude":25.965929,"target":"Localitate"}},{"code":"6938505","name":"Casa-Muzeu \"Constantin Brâncuși\"","geo":{"latitude":45.053478,"longitude":23.055851,"target":"Muzeu"}},{"code":"6938501","name":"Casa Memorială \"Ecaterina Teodoroiu\"","geo":{"latitude":45.062482,"longitude":23.290975,"target":"Muzeu"}},{"code":"6938507","name":"Casa Memorială \"Ion Popescu-Voitești\"","geo":{"latitude":45.086829,"longitude":23.433674,"target":"Muzeu"}},{"code":"6938504","name":"Casa Memorială \"Tudor Vladimirescu\"","geo":{"latitude":44.835028,"longitude":23.570688,"target":"Muzeu"}},{"code":"6938506","name":"Muzeul De Artă Târgu-Jiu","geo":{"latitude":45.042632,"longitude":23.269096,"target":"Muzeu"}},{"code":"6938500","name":"Muzeul Județean Gorj \"Alexandru Ștefulescu\"","geo":{"latitude":45.039186,"longitude":23.275994,"target":"Muzeu"}},{"code":"6938503","name":"Muzeul Arhitecturii Populare Din Gorj","geo":{"latitude":45.10656,"longitude":23.356166,"target":"Muzeu"}},{"code":"51510003101","name":"Colecția Muzeală A Mănăstirii Lainici","geo":{"latitude":45.26357,"longitude":23.392955,"target":"Muzeu"}},{"code":"7138400","name":"Peștera Polovragi","geo":{"latitude":45.200233,"longitude":23.783538,"target":"Muzeu"}},{"code":"51510004101","name":"Colecția Muzeală A Mănăstirii Polovragi","geo":{"latitude":45.192725,"longitude":23.789054,"target":"Muzeu"}},{"code":"51510005101","name":"Colecția Muzeală A Mănăstirii Tismana","geo":{"latitude":45.080684,"longitude":22.927234,"target":"Muzeu"}},{"code":"7138100","name":"Muzeul Sătesc Arcani","geo":{"latitude":45.082921,"longitude":23.132101,"target":"Localitate"}},{"code":"7139500","name":"Muzeul Sătesc Lelești","geo":{"latitude":45.103994,"longitude":23.197908,"target":"Muzeu"}},{"code":"7139700","name":"Muzeul Sătesc Rădinești","geo":{"latitude":44.787403,"longitude":23.757648,"target":"Localitate"}},{"code":"7138200","name":"Peștera Muierii","geo":{"latitude":45.192106,"longitude":23.753707,"target":"Muzeu"}},{"code":"6940506","name":"Muzeul \"Haáz Rezsö\"","geo":{"latitude":46.302359,"longitude":25.292504,"target":"Muzeu"}},{"code":"6940501","name":"Casa Memorială \"Nagy Imre\"","geo":{"latitude":46.34047,"longitude":25.807622,"target":"Muzeu"}},{"code":"6949507","name":"Muzeul \"Tarisznyás Márton\"","geo":{"latitude":46.724021,"longitude":25.60724,"target":"Muzeu"}},{"code":"51410005101","name":"Colecția Muzeală A Mănăstirii \"Sf. Ilie\"","geo":{"latitude":46.929793,"longitude":25.34217,"target":"Muzeu"}},{"code":"6940500","name":"Muzeul Secuiesc Al Ciucului","geo":{"latitude":46.355781,"longitude":25.802082,"target":"Muzeu"}},{"code":"7040600","name":"Muzeul De Etnografie Toplița","geo":{"latitude":46.924107,"longitude":25.355732,"target":"Muzeu"}},{"code":"7040300","name":"Muzeul Orășenesc \"Molnár István\"","geo":{"latitude":46.289577,"longitude":25.033324,"target":"Muzeu"}},{"code":"7140200","name":"Casa-Muzeu Bisericani","geo":{"latitude":46.359345,"longitude":25.239633,"target":"Muzeu"}},{"code":"7140300","name":"Colecția Muzeală Sătească Ciumani","geo":{"latitude":46.677339,"longitude":25.51896,"target":"Localitate"}},{"code":"7140400","name":"Colecția Muzeală Sătească Corund","geo":{"latitude":46.470902,"longitude":25.186664,"target":"Localitate"}},{"code":"7140500","name":"Colecția Muzeală Sătească Dănești","geo":{"latitude":46.51663,"longitude":25.756084,"target":"Muzeu"}},{"code":"7140600","name":"Colecția Muzeală Sătească Joseni","geo":{"latitude":46.700638,"longitude":25.504718,"target":"Localitate"}},{"code":"7140750","name":"Colecția Muzeală Sătească Lunca De Jos","geo":{"latitude":46.567824,"longitude":25.976414,"target":"Localitate"}},{"code":"7140800","name":"Casă Etnografică Ceangăiască Păltiniș-Ciuc","geo":{"latitude":46.541794,"longitude":25.965128,"target":"Muzeu"}},{"code":"7140900","name":"Colecția Muzeală Sătească Merești","geo":{"latitude":46.232667,"longitude":25.458456,"target":"Muzeu"}},{"code":"7141100","name":"Colecția Muzeală Sătească Ocland","geo":{"latitude":46.160986,"longitude":25.425164,"target":"Localitate"}},{"code":"7141200","name":"Colecția Muzeală Sătească Plăieșii De Jos","geo":{"latitude":46.221219,"longitude":26.102924,"target":"Muzeu"}},{"code":"7141250","name":"Colecția Muzeală Sătească Praid","geo":{"latitude":46.553108,"longitude":25.126821,"target":"Localitate"}},{"code":"7141300","name":"Colecția Muzeală Sătească Remetea","geo":{"latitude":46.79361,"longitude":25.454339,"target":"Localitate"}},{"code":"7141350","name":"Colecția Muzeală Sătească Rugănești","geo":{"latitude":46.306038,"longitude":25.073029,"target":"Localitate"}},{"code":"7141500","name":"Colecția Muzeală Sătească Sâncrăieni","geo":{"latitude":46.313087,"longitude":25.839504,"target":"Localitate"}},{"code":"7141550","name":"Colecția Muzeală Sătească Sândominic","geo":{"latitude":46.578546,"longitude":25.794061,"target":"Muzeu"}},{"code":"7141600","name":"Colecția Etnografică \"Casa Cu Amintiri\" - Doina Dobrean","geo":{"latitude":46.855829,"longitude":25.432516,"target":"Stradă"}},{"code":"7141700","name":"Colecția Muzeală Sătească Suseni","geo":{"latitude":46.666906,"longitude":25.555524,"target":"Localitate"}},{"code":"7141800","name":"Colecția Muzeală Sătească Tulgheș","geo":{"latitude":46.964168,"longitude":25.762393,"target":"Localitate"}},{"code":"7141850","name":"Colecția Muzeală Sătească Voșlăbeni","geo":{"latitude":46.64508,"longitude":25.62255,"target":"Localitate"}},{"code":"7141900","name":"Colecția Muzeală Sătească Zetea","geo":{"latitude":46.390437,"longitude":25.366449,"target":"Localitate"}},{"code":"7140100","name":"Colecția Muzeală Sătească Atid","geo":{"latitude":46.45077,"longitude":25.04676,"target":"Localitate"}},{"code":"7142100","name":"Complexul Memorial \"Aurel Vlaicu\"","geo":{"latitude":45.913598,"longitude":23.27425,"target":"Muzeu"}},{"code":"7143800","name":"Complexul De Monumente \"In Situ\" Sarmizegetusa Și Muzeul De Arheologie Sarmizegetusa","geo":{"latitude":45.518409,"longitude":22.78782,"target":"Muzeu"}},{"code":"7042500","name":"Castelul Corvinilor","geo":{"latitude":45.749141,"longitude":22.888279,"target":"Muzeu"}},{"code":"6942500","name":"Muzeul Civilizației Dacice Și Romane","geo":{"latitude":45.885884,"longitude":22.898308,"target":"Muzeu"}},{"code":"7530100","name":"Parcul Dendrologic Simeria","geo":{"latitude":45.861238,"longitude":23.014996,"target":"Muzeu"}},{"code":"6942502","name":"Cetatea Devei","geo":{"latitude":45.888532,"longitude":22.897232,"target":"Muzeu"}},{"code":"7043100","name":"Muzeul De Etnografie Și Artă Populară","geo":{"latitude":45.837045,"longitude":23.194633,"target":"Muzeu"}},{"code":"6942505","name":"Muzeul De Istorie Locală Și Etnografie Brad","geo":{"latitude":46.127482,"longitude":22.792151,"target":"Localitate"}},{"code":"6942503","name":"Casa Memorială Crișan","geo":{"latitude":46.169974,"longitude":22.798622,"target":"Muzeu"}},{"code":"7550100","name":"Muzeul Aurului","geo":{"latitude":46.128914,"longitude":22.790953,"target":"Muzeu"}},{"code":"7043300","name":"Muzeul Mineritului","geo":{"latitude":45.416585,"longitude":23.371136,"target":"Muzeu"}},{"code":"6944502","name":"Casa Memorială \"Ionel Perlea\"","geo":{"latitude":44.618818,"longitude":27.581318,"target":"Muzeu"}},{"code":"6944500","name":"Muzeul Județean Ialomița","geo":{"latitude":44.561892,"longitude":27.36176,"target":"Muzeu"}},{"code":"6944503","name":"Muzeul Național Al Agriculturii","geo":{"latitude":44.561608,"longitude":27.351971,"target":"Muzeu"}},{"code":"6946516","name":"Muzeul Memorial \"Alexandru Ioan Cuza\"","geo":{"latitude":47.243702,"longitude":26.845867,"target":"Muzeu"}},{"code":"7147100","name":"Muzeul \"Costache Negruzzi\"","geo":{"latitude":47.442199,"longitude":27.550251,"target":"Muzeu"}},{"code":"69465062","name":"Muzeul \"George Topîrceanu\"","geo":{"latitude":47.175719,"longitude":27.579849,"target":"Muzeu"}},{"code":"6946513","name":"Muzeul \"Ion Creangă\"","geo":{"latitude":47.175005,"longitude":27.582986,"target":"Muzeu"}},{"code":"69465061","name":"Muzeul \"Mihai Eminescu\"","geo":{"latitude":47.178962,"longitude":27.567178,"target":"Muzeu"}},{"code":"6946512","name":"Muzeul \"Mihai Codreanu\"","geo":{"latitude":47.16786,"longitude":27.58616,"target":"Muzeu"}},{"code":"6946509","name":"Muzeul Memorial \"Mihail Kogălniceanu\"","geo":{"latitude":47.17343,"longitude":27.580547,"target":"Muzeu"}},{"code":"6946510","name":"Muzeul \"Mihail Sadoveanu\"","geo":{"latitude":47.196589,"longitude":27.554365,"target":"Muzeu"}},{"code":"69465064","name":"Muzeul \"Nicolae Gane\"","geo":{"latitude":47.171643,"longitude":27.578157,"target":"Muzeu"}},{"code":"6946515","name":"Muzeul \"Otilia Cazimir\"","geo":{"latitude":47.159052,"longitude":27.598278,"target":"Muzeu"}},{"code":"69465041","name":"Muzeul Memorial \"Poni - Cernătescu\"","geo":{"latitude":47.172644,"longitude":27.580632,"target":"Muzeu"}},{"code":"6946514","name":"Muzeul \"Vasile Alecsandri\"","geo":{"latitude":47.066737,"longitude":26.850198,"target":"Muzeu"}},{"code":"69465063","name":"Muzeul \"Vasile Pogor\"","geo":{"latitude":47.172048,"longitude":27.576257,"target":"Muzeu"}},{"code":"69465011","name":"Muzeul Sitului Arheologic Cucuteni","geo":{"latitude":47.287405,"longitude":26.92977,"target":"Muzeu"}},{"code":"6946517","name":"Rezervația Arheologică Cotnari","geo":{"latitude":47.347597,"longitude":26.943605,"target":"Localitate"}},{"code":"6946503","name":"Muzeul De Artă Iași","geo":{"latitude":47.157096,"longitude":27.587113,"target":"Muzeu"}},{"code":"7412200","name":"Grădina Botanică \"Anastasie Fătu\"","geo":{"latitude":47.186492,"longitude":27.557862,"target":"Muzeu"}},{"code":"6946502","name":"Muzeul Etnografic Al Moldovei","geo":{"latitude":47.157232,"longitude":27.587905,"target":"Muzeu"}},{"code":"6946501","name":"Muzeul De Istorie A Moldovei","geo":{"latitude":47.156883,"longitude":27.586495,"target":"Muzeu"}},{"code":"6946500","name":"Complexul Muzeal Național \"Moldova\"","geo":{"latitude":47.157655,"longitude":27.586761,"target":"Muzeu"}},{"code":"6946504","name":"Muzeul Științei Și Tehnicii \"Ștefan Procopiu\"","geo":{"latitude":47.157279,"longitude":27.58696,"target":"Muzeu"}},{"code":"6946507","name":"Muzeul \"Sf. Ierarh Dosoftei Mitropolitul\"","geo":{"latitude":47.159031,"longitude":27.586888,"target":"Muzeu"}},{"code":"6946506","name":"Muzeul Național Al Literaturii Române Iași","geo":{"latitude":47.172048,"longitude":27.576257,"target":"Muzeu"}},{"code":"6946508","name":"Colecția \"Istoria Teatrului Românesc\"","geo":{"latitude":47.178962,"longitude":27.567178,"target":"Muzeu"}},{"code":"6946505","name":"Muzeul Unirii Iași","geo":{"latitude":47.167423,"longitude":27.579146,"target":"Muzeu"}},{"code":"7412100","name":"Muzeul De Istorie Naturală Iași","geo":{"latitude":47.166908,"longitude":27.58423,"target":"Muzeu"}},{"code":"6950505","name":"Ansamblul Muzeal Și Monumental \"Dr. Vasile Lucaciu\"","geo":{"latitude":47.631041,"longitude":23.694119,"target":"Muzeu"}},{"code":"6950504","name":"Casa Memorială \"Gheorghe Pop De Băsești\"","geo":{"latitude":47.48575,"longitude":23.147529,"target":"Muzeu"}},{"code":"7150300","name":"Muzeul Memorial \"Petöfi Sándor\"","geo":{"latitude":47.599776,"longitude":23.522826,"target":"Muzeu"}},{"code":"6950502","name":"Muzeul Județean De Etnografie Și Artă Populară Maramureș","geo":{"latitude":47.66622,"longitude":23.576417,"target":"Muzeu"}},{"code":"6950501","name":"Muzeul Județean De Artă \"Centrul Artistic Baia Mare\"","geo":{"latitude":47.658073,"longitude":23.583724,"target":"Muzeu"}},{"code":"7051500","name":"Muzeul Maramureșului","geo":{"latitude":47.928148,"longitude":23.889866,"target":"Muzeu"}},{"code":"7050400","name":"Muzeul Județean De Mineralogie \"Victor Gorduza\" Baia Mare","geo":{"latitude":47.650434,"longitude":23.567118,"target":"Muzeu"}},{"code":"7152302","name":"Casa Memorială \"Constantin Rădulescu-Motru\"","geo":{"latitude":44.587538,"longitude":23.370851,"target":"Localitate"}},{"code":"51510001101","name":"Colecția Muzeală A Mănăstirii Gura Motrului","geo":{"latitude":44.551599,"longitude":23.444817,"target":"Muzeu"}},{"code":"51510015201","name":"Colecția Muzeală A Mănăstirii Strehaia","geo":{"latitude":44.621008,"longitude":23.192415,"target":"Muzeu"}},{"code":"7152300","name":"Peștera Topolnița","geo":{"latitude":44.884028,"longitude":22.636886,"target":"Localitate"}},{"code":"7055501","name":"Galeria De Artă \"Ion Vlasiu\"","geo":{"latitude":46.542719,"longitude":24.565277,"target":"Muzeu"}},{"code":"7155200","name":"Casa Memorială \"N. D. Cocea\"","geo":{"latitude":46.219451,"longitude":24.791949,"target":"Muzeu"}},{"code":"7055500","name":"Muzeul Județean Mureș. Muzeul De Artă","geo":{"latitude":46.543279,"longitude":24.557647,"target":"Muzeu"}},{"code":"7055100","name":"Muzeul Etnografic \"Anton Badea\" Reghin","geo":{"latitude":46.786463,"longitude":24.701266,"target":"Muzeu"}},{"code":"6954502","name":"Muzeul Județean Mureș. Secția De Etnografie Și Artă Populară","geo":{"latitude":46.545359,"longitude":24.561583,"target":"Muzeu"}},{"code":"7055300","name":"Muzeul De Istorie Sighișoara","geo":{"latitude":46.219292,"longitude":24.79328,"target":"Muzeu"}},{"code":"6954500","name":"Muzeul Județean Mureș","geo":{"latitude":46.552683,"longitude":24.563976,"target":"Stradă"}},{"code":"6954503","name":"Muzeul Județean Mureș. Secția De Științele Naturii","geo":{"latitude":46.545674,"longitude":24.556145,"target":"Muzeu"}},{"code":"7055800","name":"Muzeul Municipal Târnăveni","geo":{"latitude":46.329143,"longitude":24.28225,"target":"Muzeu"}},{"code":"7156100","name":"Casa Memorială \"Alexandru Vlahuță\"","geo":{"latitude":47.170186,"longitude":26.235199,"target":"Muzeu"}},{"code":"7156900","name":"Muzeul \"Aristide Caradja\"","geo":{"latitude":47.141783,"longitude":26.37563,"target":"Muzeu"}},{"code":"6956505","name":"Complexul Muzeal Național Neamț - Muzeul Memorial \"Calistrat Hogaș\" Piatra-Neamț","geo":{"latitude":46.931625,"longitude":26.365937,"target":"Muzeu"}},{"code":"6956514","name":"Complexul Muzeal Național Neamț - Muzeul Memorial \"Ion Creangă\" Târgu Neamț","geo":{"latitude":47.19759,"longitude":26.354591,"target":"Muzeu"}},{"code":"6956516","name":"Casa Memorială \"Mihail Sadoveanu\"","geo":{"latitude":47.257399,"longitude":26.20908,"target":"Muzeu"}},{"code":"6956517","name":"Casa Memorială \"Veronica Micle\"","geo":{"latitude":47.206948,"longitude":26.358157,"target":"Muzeu"}},{"code":"51310000101","name":"Muzeul Mănăstirii Agapia","geo":{"latitude":47.16989,"longitude":26.235543,"target":"Muzeu"}},{"code":"6956509","name":"Complexul Muzeal Național Neamț - Muzeul De Artă Roman","geo":{"latitude":46.926057,"longitude":26.931229,"target":"Muzeu"}},{"code":"6956502","name":"Complexul Muzeal Național Neamț - Muzeul De Artă Piatra-Neamț","geo":{"latitude":46.933191,"longitude":26.368198,"target":"Muzeu"}},{"code":"6956503","name":"Complexul Muzeal Național Neamț - Muzeul De Etnografie Piatra-Neamț","geo":{"latitude":46.933222,"longitude":26.368021,"target":"Muzeu"}},{"code":"6956512","name":"Complexul Muzeal Național Neamț - Muzeul De Istorie Și Etnografie Târgu Neamț","geo":{"latitude":47.207061,"longitude":26.358378,"target":"Muzeu"}},{"code":"6956506","name":"Complexul Muzeal Național Neamț - Muzeul De Istorie Bicaz","geo":{"latitude":46.911806,"longitude":26.087868,"target":"Muzeu"}},{"code":"6956508","name":"Complexul Muzeal Național Neamț - Muzeul De Istorie Roman","geo":{"latitude":46.925815,"longitude":26.92441,"target":"Muzeu"}},{"code":"6956504","name":"Complexul Muzeal Național Neamț - Muzeul De Științe Naturale Piatra-Neamț","geo":{"latitude":46.934631,"longitude":26.373691,"target":"Muzeu"}},{"code":"6956510","name":"Complexul Muzeal Național Neamț - Muzeul De Științele Naturii Roman","geo":{"latitude":46.933833,"longitude":26.925767,"target":"Muzeu"}},{"code":"6956500","name":"Complexul Muzeal Național Neamț","geo":{"latitude":46.927855,"longitude":26.369574,"target":"Muzeu"}},{"code":"6956513","name":"Muzeul Cetatea Neamțului","geo":{"latitude":47.214224,"longitude":26.34333,"target":"Muzeu"}},{"code":"51310005101","name":"Colecția Muzeală A Mănăstirii Neamț","geo":{"latitude":47.26335,"longitude":26.208583,"target":"Muzeu"}},{"code":"51310007001","name":"Colecția Muzeală A Mănăstirii Secu","geo":{"latitude":47.199676,"longitude":26.184286,"target":"Muzeu"}},{"code":"51310008401","name":"Colecția Muzeală A Mănăstirii Văratec","geo":{"latitude":47.139932,"longitude":26.268467,"target":"Muzeu"}},{"code":"6958500","name":"Muzeul Județean Olt","geo":{"latitude":44.430097,"longitude":24.360156,"target":"Muzeu"}},{"code":"7058500","name":"Muzeul Romanațiului","geo":{"latitude":44.109476,"longitude":24.347847,"target":"Muzeu"}},{"code":"7058701","name":"Cetatea Romană Sucidava (celeiu)","geo":{"latitude":43.764278,"longitude":24.45915,"target":"Muzeu"}},{"code":"7058300","name":"Muzeul Județean Olt. Colecția De Ceramică Populară De Pe Valea Oltețului","geo":{"latitude":44.350456,"longitude":24.097292,"target":"Stradă"}},{"code":"7058900","name":"Muzeul Câmpiei Boianului - \"Traian Zorzoliu\"","geo":{"latitude":44.170883,"longitude":24.51636,"target":"Stradă"}},{"code":"7159200","name":"Muzeul Sătesc Orlea","geo":{"latitude":43.755887,"longitude":24.37392,"target":"Localitate"}},{"code":"6960506","name":"Muzeul \"Bogdan Petriceicu Hasdeu\"","geo":{"latitude":45.135295,"longitude":25.726747,"target":"Muzeu"}},{"code":"6961302","name":"Muzeul Rezervației Naturale Bucegi","geo":{"latitude":45.353367,"longitude":25.552306,"target":"Muzeu"}},{"code":"6960505","name":"Casa Memorială \"Cezar Petrescu\"","geo":{"latitude":45.422941,"longitude":25.547584,"target":"Muzeu"}},{"code":"6960503","name":"Muzeul \"Ion Luca Caragiale\"","geo":{"latitude":44.939133,"longitude":26.024196,"target":"Muzeu"}},{"code":"6960512","name":"Muzeul \"Casa De Târgoveț Din Secolele Al Xviii-Lea - Al Xix-Lea\" (hagi Prodan)","geo":{"latitude":44.938234,"longitude":26.027451,"target":"Muzeu"}},{"code":"7060100","name":"Muzeul Memorial \"Nicolae Grigorescu\"","geo":{"latitude":45.134384,"longitude":25.732761,"target":"Muzeu"}},{"code":"6960509","name":"Muzeul Memorial \"Nicolae Iorga\"","geo":{"latitude":45.185995,"longitude":26.039888,"target":"Muzeu"}},{"code":"6960501","name":"Muzeul Ceasului \"Nicolae Simache\"","geo":{"latitude":44.936234,"longitude":26.026792,"target":"Muzeu"}},{"code":"6961301","name":"Muzeul De Etnografie Al Văii Teleajănului","geo":{"latitude":45.1861,"longitude":26.04044,"target":"Muzeu"}},{"code":"6960900","name":"Muzeul Județean De Artă Prahova \"Ion Ionescu-Quintus\"","geo":{"latitude":44.937722,"longitude":26.025955,"target":"Muzeu"}},{"code":"6960510","name":"Muzeul \"Casa Domnească\" Brebu","geo":{"latitude":45.18154,"longitude":25.767281,"target":"Muzeu"}},{"code":"69605092","name":"Muzeul Cinegetic Al Carpaților","geo":{"latitude":45.28309,"longitude":25.618681,"target":"Muzeu"}},{"code":"6960508","name":"Muzeul \"Conacul Bellu\"","geo":{"latitude":45.001615,"longitude":26.234812,"target":"Muzeu"}},{"code":"51210002601","name":"Colecția Muzeală A Mănăstirii Ortodoxe Ghighiu","geo":{"latitude":44.900322,"longitude":26.065653,"target":"Muzeu"}},{"code":"7550800","name":"Muzeul Petrolului","geo":{"latitude":44.939172,"longitude":26.029122,"target":"Muzeu"}},{"code":"6961500","name":"Muzeul Național Peleș","geo":{"latitude":45.35993,"longitude":25.542682,"target":"Muzeu"}},{"code":"6960500","name":"Muzeul Județean De Istorie Și Arheologie Prahova","geo":{"latitude":44.939925,"longitude":26.02695,"target":"Muzeu"}},{"code":"6961300","name":"Muzeul Județean De Științele Naturii Prahova","geo":{"latitude":44.941695,"longitude":26.021974,"target":"Muzeu"}},{"code":"6961303","name":"Muzeul Sării","geo":{"latitude":45.234248,"longitude":25.937479,"target":"Muzeu"}},{"code":"51210005701","name":"Colecția Muzeală A Mănăstirii Ortodoxe Sinaia","geo":{"latitude":45.355358,"longitude":25.549194,"target":"Muzeu"}},{"code":"51210005901","name":"Colecția Muzeală A Mănăstirii Ortodoxe Suzana","geo":{"latitude":45.393451,"longitude":25.930532,"target":"Muzeu"}},{"code":"6960511","name":"Rezervația Arheologică \"Târgșoru Vechi\"","geo":{"latitude":44.888973,"longitude":25.926579,"target":"Muzeu"}},{"code":"7160500","name":"Muzeul Sătesc Cornu","geo":{"latitude":45.156476,"longitude":25.702522,"target":"Muzeu"}},{"code":"512100079","name":"Colecția Muzeală A Mănăstirii Zamfira","geo":{"latitude":45.069365,"longitude":26.006206,"target":"Muzeu"}},{"code":"6962502","name":"Muzeul Memorial \"Ady Endre\"/ady Endre Emlékmúzeum","geo":{"latitude":47.582885,"longitude":22.618072,"target":"Muzeu"}},{"code":"7162100","name":"Casa Memorială \"Dr. Vasile Lucaciu\"","geo":{"latitude":47.762992,"longitude":23.195286,"target":"Muzeu"}},{"code":"7063500","name":"Muzeul Orășenesc Tășnad","geo":{"latitude":47.47737,"longitude":22.582472,"target":"Muzeu"}},{"code":"6964501","name":"Muzeul Județean De Istorie Și Artă. Galeria De Artă \"Ioan Sima\"","geo":{"latitude":47.170437,"longitude":23.067236,"target":"Stradă"}},{"code":"6964500","name":"Muzeul Județean De Istorie Și Artă","geo":{"latitude":47.179732,"longitude":23.053144,"target":"Muzeu"}},{"code":"7166500","name":"Muzeul \"Badea Cârțan\"","geo":{"latitude":45.729603,"longitude":24.573819,"target":"Stradă"}},{"code":"69665021","name":"Muzeul De Etnografie Universală \"Franz Binder\"","geo":{"latitude":45.797582,"longitude":24.151056,"target":"Muzeu"}},{"code":"7166100","name":"Muzeul Avrig","geo":{"latitude":45.7265,"longitude":24.374842,"target":"Muzeu"}},{"code":"7168800","name":"Colecția Memorială \"Octavian Goga\"","geo":{"latitude":45.70413,"longitude":24.067285,"target":"Muzeu"}},{"code":"7067101","name":"Casa Memorială \"Stephan Ludwig Roth\"","geo":{"latitude":46.1667,"longitude":24.350557,"target":"Muzeu"}},{"code":"7168200","name":"Expoziția Muzeală \"Vasile Dobrian\"","geo":{"latitude":45.801328,"longitude":23.78227,"target":"Localitate"}},{"code":"6966500","name":"Muzeul Național Brukenthal","geo":{"latitude":45.796555,"longitude":24.15063,"target":"Muzeu"}},{"code":"6966501","name":"Muzeul De Istorie Sibiu","geo":{"latitude":45.796975,"longitude":24.14959,"target":"Muzeu"}},{"code":"7167800","name":"Muzeu Etnografic Poiana Sibiului","geo":{"latitude":45.809197,"longitude":23.729108,"target":"Muzeu"}},{"code":"7168100","name":"Muzeu Etnografic Rășinari","geo":{"latitude":45.710119,"longitude":24.065096,"target":"Muzeu"}},{"code":"7066401","name":"Expoziția Muzeală De Etnografie Cisnădioara","geo":{"latitude":45.704677,"longitude":24.11221,"target":"Localitate"}},{"code":"7066100","name":"Muzeul \"Valea Hârtibaciului\"","geo":{"latitude":45.975528,"longitude":24.625083,"target":"Muzeu"}},{"code":"6966503","name":"Muzeul De Istoria Farmaciei","geo":{"latitude":45.798354,"longitude":24.152008,"target":"Muzeu"}},{"code":"7166600","name":"Muzeu Sătesc Etnografic","geo":{"latitude":45.78656,"longitude":24.029838,"target":"Muzeu"}},{"code":"6966505","name":"Muzeul De Vânătoare \"August Von Spiess\"","geo":{"latitude":45.786625,"longitude":24.1469,"target":"Muzeu"}},{"code":"7067100","name":"Muzeul Municipal Mediaș","geo":{"latitude":46.168933,"longitude":24.352541,"target":"Muzeu"}},{"code":"6966504","name":"Muzeul De Istorie Naturală Sibiu","geo":{"latitude":45.795019,"longitude":24.154969,"target":"Muzeu"}},{"code":"69665022","name":"Muzeul Civilizației Populare Tradiționale Astra","geo":{"latitude":45.754917,"longitude":24.111961,"target":"Muzeu"}},{"code":"5144000002","name":"Muzeul De Icoane Și Obiecte Bisericești \"Casa Mihai Eminescu\"","geo":{"latitude":45.793292,"longitude":24.145899,"target":"Muzeu"}},{"code":"6966502","name":"Complexul Național Muzeal \"Astra\"","geo":{"latitude":45.797619,"longitude":24.150977,"target":"Muzeu"}},{"code":"7066400","name":"Expoziția Muzeală \"Istoricul Industriei Textile\"","geo":{"latitude":45.713548,"longitude":24.151459,"target":"Muzeu"}},{"code":"7166300","name":"Colecția Etnografică Boița","geo":{"latitude":45.633447,"longitude":24.25897,"target":"Localitate"}},{"code":"7168700","name":"Expoziția Muzeală Turnu Roșu","geo":{"latitude":45.639431,"longitude":24.299317,"target":"Muzeu"}},{"code":"7167200","name":"Muzeu Comunal Gura Râului","geo":{"latitude":45.729354,"longitude":23.981676,"target":"Stradă"}},{"code":"7167100","name":"Muzeul Culturii Săliștene","geo":{"latitude":45.794975,"longitude":23.883619,"target":"Localitate"}},{"code":"7168500","name":"Muzeul Parohial De Icoane Pe Sticlă \"Pr. Zosim Oancea\"","geo":{"latitude":45.765794,"longitude":23.913164,"target":"Muzeu"}},{"code":"7067600","name":"Grădina Zoologică Sibiu","geo":{"latitude":45.762429,"longitude":24.124006,"target":"Muzeu"}},{"code":"6968506","name":"Muzeul Memorial \"Ciprian Porumbescu\"","geo":{"latitude":47.565509,"longitude":26.058723,"target":"Muzeu"}},{"code":"7170700","name":"Casa Memorială \"Eusebiu Camilar\"","geo":{"latitude":47.576128,"longitude":26.410256,"target":"Localitate"}},{"code":"7069102","name":"Muzeul De Artă \"Ion Irimescu\"","geo":{"latitude":47.462586,"longitude":26.296684,"target":"Muzeu"}},{"code":"7069103","name":"Muzeul Apelor \"Mihai Băcescu\"","geo":{"latitude":47.461148,"longitude":26.29717,"target":"Muzeu"}},{"code":"7071000","name":"Casa Memorială \"Mihail Sadoveanu\"","geo":{"latitude":47.466231,"longitude":26.287099,"target":"Muzeu"}},{"code":"7170600","name":"Casa Memorială \"Nicolae Labiș\"","geo":{"latitude":47.450246,"longitude":26.084022,"target":"Muzeu"}},{"code":"7070200","name":"Casa-Muzeu Solca","geo":{"latitude":47.707011,"longitude":25.84502,"target":"Muzeu"}},{"code":"6968504","name":"Casa Memorială \"Simion Florea Marian\"","geo":{"latitude":47.645118,"longitude":26.255053,"target":"Muzeu"}},{"code":"6968502","name":"Muzeul Bucovinei. Secția De Artă","geo":{"latitude":47.64138,"longitude":26.257463,"target":"Muzeu"}},{"code":"69685031","name":"Observatorul Astronomic Al Universității \"Ștefan Cel Mare\" Suceava","geo":{"latitude":47.641738,"longitude":26.24537,"target":"Muzeu"}},{"code":"7069900","name":"Muzeul De Etnografie \"Samuil Și Eugenia Ioneț\" - Rădăuți","geo":{"latitude":47.846661,"longitude":25.915864,"target":"Muzeu"}},{"code":"51310001501","name":"Muzeul \"Anastasie Crimca\" Al Mănăstirii Dragomirna","geo":{"latitude":47.758137,"longitude":26.229615,"target":"Muzeu"}},{"code":"7069300","name":"Muzeul Obiceiurilor Populare Din Bucovina","geo":{"latitude":47.554316,"longitude":25.889066,"target":"Muzeu"}},{"code":"7070900","name":"Muzeul Etnografic Vatra Dornei","geo":{"latitude":47.347338,"longitude":25.356238,"target":"Muzeu"}},{"code":"69685001","name":"Muzeul De Istorie Siret","geo":{"latitude":47.950391,"longitude":26.065368,"target":"Localitate"}},{"code":"51310004601","name":"Colecția Muzeală A Mănăstirii Moldovița","geo":{"latitude":47.656833,"longitude":25.571283,"target":"Muzeu"}},{"code":"6968500","name":"Muzeul Bucovinei. Muzeul De Istorie","geo":{"latitude":47.641414,"longitude":26.257418,"target":"Muzeu"}},{"code":"7070600","name":"Muzeul De Științele Naturii Și Cinegetică","geo":{"latitude":47.344982,"longitude":25.357465,"target":"Muzeu"}},{"code":"6968503","name":"Muzeul Bucovinei. Muzeul De Științele Naturii","geo":{"latitude":47.643426,"longitude":26.259719,"target":"Muzeu"}},{"code":"7069101","name":"Galeria Oamenilor De Seamă Din Fălticeni","geo":{"latitude":47.465314,"longitude":26.299689,"target":"Muzeu"}},{"code":"51310005501","name":"Colecția Muzeală A Mănăstirii Putna","geo":{"latitude":47.866111,"longitude":25.597522,"target":"Muzeu"}},{"code":"51310007401","name":"Colecția Muzeală A Mănăstirii Sucevița","geo":{"latitude":47.778153,"longitude":25.711156,"target":"Muzeu"}},{"code":"7169300","name":"Muzeul Sătesc Botoșana","geo":{"latitude":47.683338,"longitude":25.941824,"target":"Localitate"}},{"code":"7169500","name":"Muzeul Sătesc Broșteni","geo":{"latitude":47.239845,"longitude":25.696607,"target":"Muzeu"}},{"code":"6968505","name":"Muzeul Bucovinei. Muzeul Satului Bucovinean","geo":{"latitude":47.642498,"longitude":26.271825,"target":"Muzeu"}},{"code":"7068500","name":"Muzeul \"Arta Lemnului\"","geo":{"latitude":47.531416,"longitude":25.553806,"target":"Muzeu"}},{"code":"6971500","name":"Muzeul Județean Teleorman","geo":{"latitude":43.97164,"longitude":25.327118,"target":"Muzeu"}},{"code":"7072100","name":"Muzeul Municipal De Istorie \"Petre Voievozeanu\"","geo":{"latitude":44.109035,"longitude":24.994514,"target":"Muzeu"}},{"code":"7172600","name":"Muzeul De Etnografie Stejaru","geo":{"latitude":44.186269,"longitude":24.882069,"target":"Muzeu"}},{"code":"7171900","name":"Casa Memorială \"Zaharia Stancu\"","geo":{"latitude":43.932892,"longitude":24.93391,"target":"Muzeu"}},{"code":"7171500","name":"Muzeul De Etnografie Drăgșani","geo":{"latitude":44.216542,"longitude":24.989468,"target":"Localitate"}},{"code":"7074700","name":"Expoziția Memorială \"Béla Bártok\"","geo":{"latitude":46.071564,"longitude":20.627392,"target":"Stradă"}},{"code":"6973503","name":"Expoziția De Artă Populară \"Iuliana Folea Troceanu\"","geo":{"latitude":45.647706,"longitude":21.601889,"target":"Localitate"}},{"code":"6973504","name":"Casa Memorială \"Nikolaus Lenau\"","geo":{"latitude":45.871752,"longitude":20.801872,"target":"Muzeu"}},{"code":"7073900","name":"Expoziția Memorială \"Ștefan Jäger\"","geo":{"latitude":45.791782,"longitude":20.718935,"target":"Stradă"}},{"code":"7174600","name":"Expoziția Memorială \"Traian Vuia\"","geo":{"latitude":45.798531,"longitude":22.067054,"target":"Muzeu"}},{"code":"69735002","name":"Muzeul De Artă Timișoara","geo":{"latitude":45.757587,"longitude":21.22911,"target":"Muzeu"}},{"code":"6973502","name":"Muzeul Satului Bănățean","geo":{"latitude":45.779524,"longitude":21.263735,"target":"Muzeu"}},{"code":"7174400","name":"Centrul Cultural Teremia Mare","geo":{"latitude":45.933703,"longitude":20.526338,"target":"Localitate"}},{"code":"7074100","name":"Muzeul De Istorie, Etnografie Și Artă Plastică Lugoj","geo":{"latitude":45.682765,"longitude":21.903433,"target":"Muzeu"}},{"code":"7073500","name":"Muzeul Orașului Deta","geo":{"latitude":45.391213,"longitude":21.223179,"target":"Muzeu"}},{"code":"6973500","name":"Muzeul Național Al Banatului","geo":{"latitude":45.753413,"longitude":21.226994,"target":"Muzeu"}},{"code":"69735003","name":"Muzeul Național Al Banatului. Secția De Științele Naturii","geo":{"latitude":45.752906,"longitude":21.227326,"target":"Muzeu"}},{"code":"5161030002","name":"Colecția Muzeală A Protoieriei Ortodoxe Lugoj","geo":{"latitude":45.687144,"longitude":21.905849,"target":"Muzeu"}},{"code":"6500010004","name":"Colecția Muzeală A Episcopiei Ortodoxe Sârbe","geo":{"latitude":45.757737,"longitude":21.228006,"target":"Muzeu"}},{"code":"6975505","name":"Casa Memorială \"Panait Cerna\"","geo":{"latitude":45.082871,"longitude":28.303334,"target":"Muzeu"}},{"code":"6975501","name":"Muzeul De Artă Tulcea","geo":{"latitude":45.180122,"longitude":28.805001,"target":"Muzeu"}},{"code":"51230001101","name":"Colecția Muzeală A Mănăstirii Ortodoxe Celic-Dere","geo":{"latitude":45.12715,"longitude":28.581251,"target":"Muzeu"}},{"code":"51230001201","name":"Colecția Muzeală A Mănăstirii Ortodoxe \"Cocoș\"","geo":{"latitude":45.212231,"longitude":28.415409,"target":"Muzeu"}},{"code":"6975500","name":"Institutul De Cercetări Eco-Muzeale \"Gavrilă Simion\"","geo":{"latitude":45.180327,"longitude":28.805502,"target":"Muzeu"}},{"code":"6975503","name":"Centrul Muzeal Ecoturistic \"Delta Dunării\"","geo":{"latitude":45.180104,"longitude":28.805754,"target":"Muzeu"}},{"code":"6975502","name":"Muzeul De Etnografie Și Artă Populară Tulcea","geo":{"latitude":45.179523,"longitude":28.805883,"target":"Muzeu"}},{"code":"6975507","name":"Muzeul De Istorie Și Arheologie Tulcea","geo":{"latitude":45.185884,"longitude":28.815317,"target":"Muzeu"}},{"code":"6977504","name":"Casa Memorială \"Emil Racoviță\"","geo":{"latitude":46.871389,"longitude":27.679167,"target":"Localitate"}},{"code":"6977500","name":"Muzeul Județean \"Ștefan Cel Mare\" Vaslui","geo":{"latitude":46.638684,"longitude":27.730815,"target":"Muzeu"}},{"code":"7077500","name":"Muzeul \"Vasile Pârvan\"","geo":{"latitude":46.230437,"longitude":27.673175,"target":"Muzeu"}},{"code":"513200051","name":"Muzeul Eparhial Huși","geo":{"latitude":46.673171,"longitude":28.054854,"target":"Muzeu"}},{"code":"7077900","name":"Muzeul Municipal Huși","geo":{"latitude":46.671911,"longitude":28.066552,"target":"Stradă"}},{"code":"7177600","name":"Muzeul Sătesc Grumezoaia","geo":{"latitude":46.556667,"longitude":28.038056,"target":"Localitate"}},{"code":"7178900","name":"Colecția \"Elena Și Costel Rotaru\"","geo":{"latitude":46.919085,"longitude":27.684586,"target":"Muzeu"}},{"code":"7178901","name":"Muzeul Sătesc Vutcani","geo":{"latitude":46.462883,"longitude":27.949898,"target":"Muzeu"}},{"code":"7427447","name":"Muzeul Viticol","geo":{"latitude":46.670934,"longitude":28.048306,"target":"Muzeu"}},{"code":"7077600","name":"Grădina Zoologică Bârlad","geo":{"latitude":46.244847,"longitude":27.673237,"target":"Muzeu"}},{"code":"7179300","name":"Colecția De Artă \"Alexandru Bălintescu\"","geo":{"latitude":45.146114,"longitude":24.059458,"target":"Localitate"}},{"code":"6979503","name":"Casa Memorială \"Anton Pann\"","geo":{"latitude":45.103034,"longitude":24.360953,"target":"Muzeu"}},{"code":"51520001601","name":"Colecția Muzeală A Mănăstirii \"Dintr-Un Lemn\"","geo":{"latitude":45.025235,"longitude":24.180153,"target":"Muzeu"}},{"code":"6979900","name":"Muzeul Memorial \"Nicolae Bălcescu\"","geo":{"latitude":45.116635,"longitude":24.450002,"target":"Localitate"}},{"code":"6979504","name":"Muzeul De Arheologie Și Artă Religioasă \"Gheorghe Petre\"","geo":{"latitude":45.080323,"longitude":24.17861,"target":"Muzeu"}},{"code":"6979501","name":"Muzeul De Artă \"Casa Simian\"","geo":{"latitude":45.106278,"longitude":24.362112,"target":"Muzeu"}},{"code":"51520000501","name":"Colecția Muzeală A Mănăstirii Bistrița","geo":{"latitude":45.188857,"longitude":24.039931,"target":"Muzeu"}},{"code":"51520001201","name":"Colecția Muzeală A Mănăstirii Cozia","geo":{"latitude":45.271405,"longitude":24.31563,"target":"Muzeu"}},{"code":"7079500","name":"Galeria De Artă Populară Contemporană","geo":{"latitude":45.145547,"longitude":23.988899,"target":"Muzeu"}},{"code":"6979505","name":"Muzeul Satului Vâlcean","geo":{"latitude":45.141537,"longitude":24.363589,"target":"Muzeu"}},{"code":"51520002701","name":"Colecția Muzeală A Mănăstirii Govora","geo":{"latitude":45.062997,"longitude":24.219749,"target":"Muzeu"}},{"code":"51520003501","name":"Colecția Muzeală A Mănăstirii Hurezi","geo":{"latitude":45.169865,"longitude":24.007096,"target":"Muzeu"}},{"code":"6979507","name":"Complexul Muzeal Măldărești","geo":{"latitude":45.118693,"longitude":24.003216,"target":"Muzeu"}},{"code":"6979500","name":"Muzeul Județean \"Aurelian Sacerdoțeanu\" Vâlcea","geo":{"latitude":45.106471,"longitude":24.363309,"target":"Muzeu"}},{"code":"6981506","name":"Muzeul Memorial \"Alexandru Vlahuță\"","geo":{"latitude":45.560848,"longitude":27.078227,"target":"Muzeu"}},{"code":"6981505","name":"Casa Memorială \"Moș Ion Roată\"","geo":{"latitude":46.018902,"longitude":26.778577,"target":"Localitate"}},{"code":"6981509","name":"Muzeul Vrancei. Secția De Istorie Și Arheologie","geo":{"latitude":45.698547,"longitude":27.176829,"target":"Muzeu"}},{"code":"6981503","name":"Mausoleul Mărășești","geo":{"latitude":45.872359,"longitude":27.20785,"target":"Muzeu"}},{"code":"6981507","name":"Mausoleul Mărăști","geo":{"latitude":46.014285,"longitude":26.84365,"target":"Localitate"}},{"code":"6981512","name":"Muzeul Vrancei. Secția De Științele Naturii","geo":{"latitude":45.70076,"longitude":27.18945,"target":"Muzeu"}},{"code":"6981508","name":"Mausoleul Și Muzeul Soveja","geo":{"latitude":45.998,"longitude":26.639866,"target":"Muzeu"}},{"code":"6981511","name":"Muzeul Orășenesc Adjud","geo":{"latitude":46.094214,"longitude":27.181829,"target":"Stradă"}},{"code":"7181600","name":"Colecția Muzeală Colacu","geo":{"latitude":45.890577,"longitude":26.834235,"target":"Localitate"}},{"code":"7181700","name":"Colecția Muzeală Sătească Cotești","geo":{"latitude":45.642461,"longitude":27.061837,"target":"Localitate"}},{"code":"7182100","name":"Colecția Muzeală Sătească Gugești","geo":{"latitude":45.565454,"longitude":27.128292,"target":"Muzeu"}},{"code":"7182900","name":"Colecția Muzeală Sătească Paltin","geo":{"latitude":45.78156,"longitude":26.719648,"target":"Localitate"}},{"code":"7181500","name":"Colecția Muzeală Sătească Cârligele","geo":{"latitude":45.675831,"longitude":27.077008,"target":"Localitate"}},{"code":"7183805","name":"Colecția Muzeală Sătească Vulcăneasa","geo":{"latitude":45.77336,"longitude":26.907944,"target":"Muzeu"}},{"code":"7183801","name":"Muzeul Viticol Odobești","geo":{"latitude":45.761221,"longitude":27.060959,"target":"Stradă"}},{"code":"6981500","name":"Muzeul Vrancei","geo":{"latitude":45.69859,"longitude":27.177023,"target":"Muzeu"}},{"code":"6981502","name":"Muzeul Vrancei. Secția De Arhitectură Și Tehnică Populară \"Crângul Petrești\"","geo":{"latitude":45.72453,"longitude":27.231407,"target":"Muzeu"}},{"code":"7510300","name":"Muzeul Național Al Aviației Române","geo":{"latitude":44.477265,"longitude":26.111069,"target":"Muzeu"}},{"code":"6950500","name":"Muzeul Județean De Istorie Și Arheologie Maramureș","geo":{"latitude":47.661611,"longitude":23.58137,"target":"Muzeu"}},{"code":"6950507","name":"Planetariul Baia Mare","geo":{"latitude":47.657787,"longitude":23.56358,"target":"Muzeu"}},{"code":"6950508","name":"Casa Memorială A Poetului Ion Șiugariu","geo":{"latitude":47.704285,"longitude":23.491307,"target":"Localitate"}},{"code":"6950509","name":"Casa Martirilor De La Moisei","geo":{"latitude":47.653755,"longitude":24.59978,"target":"Muzeu"}},{"code":"6968600","name":"Muzeul Bucovinei. Secția De Etnografie Hanul Domnesc","geo":{"latitude":47.644572,"longitude":26.257622,"target":"Muzeu"}},{"code":"9280000","name":"Muzeul Băncii Naționale A României","geo":{"latitude":44.433056,"longitude":26.099722,"target":"Muzeu"}},{"code":"6944504","name":"Așezământul De Artă Și Cultură Religioasă \"Maia Catargi\"","geo":{"latitude":44.73859,"longitude":26.403846,"target":"Localitate"}},{"code":"6918507","name":"Casa Memorială \"Vasile Voiculescu\"","geo":{"latitude":45.289278,"longitude":26.555389,"target":"Muzeu"}},{"code":"6912506","name":"Galeriile De Artă \"Ștefan Luchian\"","geo":{"latitude":47.745021,"longitude":26.662112,"target":"Stradă"}},{"code":"6975508","name":"Monumentul Paleocreștin Niculițel","geo":{"latitude":45.186609,"longitude":28.484421,"target":"Muzeu"}},{"code":"7300206","name":"Muzeul \"K. H. Zambaccian\"","geo":{"latitude":44.460787,"longitude":26.091279,"target":"Muzeu"}},{"code":"6402000","name":"Muzeul De Istorie A Evreilor Din România \"Șef Rabin Dr. Moses Rosen\"","geo":{"latitude":44.428389,"longitude":26.107961,"target":"Muzeu"}},{"code":"7105100","name":"Colecția Muzeală Sătească Mușătești","geo":{"latitude":45.220829,"longitude":24.783136,"target":"Localitate"}},{"code":"7004701","name":"Cetatea Poienari","geo":{"latitude":45.353845,"longitude":24.635193,"target":"Muzeu"}},{"code":"7174800","name":"Muzeul Pompierilor Teremia Mare","geo":{"latitude":45.935919,"longitude":20.52801,"target":"Localitate"}},{"code":"70000000","name":"Memorialul Victimelor Comunismului Și Al Rezistenței","geo":{"latitude":47.92707,"longitude":23.891302,"target":"Muzeu"}},{"code":"6928600","name":"Muzeul Național Al Carpaților Răsăriteni","geo":{"latitude":45.865616,"longitude":25.785233,"target":"Muzeu"}},{"code":"6968507","name":"Muzeul Bucovinei. Cetatea De Scaun A Sucevei","geo":{"latitude":47.64475,"longitude":26.270085,"target":"Muzeu"}},{"code":"6966509","name":"Muzeul De Etnografie Și Artă Populară Săsească \"Emil Sigerus\"","geo":{"latitude":45.798384,"longitude":24.151076,"target":"Muzeu"}},{"code":"6966510","name":"Muzeul Civilizației Transilvane \"Astra\"","geo":{"latitude":45.797636,"longitude":24.151145,"target":"Muzeu"}},{"code":"7300211","name":"Muzeul \"Theodor Pallady\"","geo":{"latitude":44.439163,"longitude":26.113518,"target":"Muzeu"}},{"code":"7300210","name":"Muzeul Memorial \"Dimitrie Și Aurelia Ghiață\"","geo":{"latitude":44.432204,"longitude":26.074094,"target":"Muzeu"}},{"code":"7174900","name":"Expoziția De Etnografie Și Artă Populară Ciacova","geo":{"latitude":45.513469,"longitude":21.124652,"target":"Muzeu"}},{"code":"7510200","name":"Muzeul Militar Timișoara","geo":{"latitude":45.75435,"longitude":21.22717,"target":"Muzeu"}},{"code":"6960514","name":"Muzeul Memorial \"Paul Constantinescu\"","geo":{"latitude":44.940531,"longitude":26.02841,"target":"Muzeu"}},{"code":"6962505","name":"Muzeul Șvăbesc Petrești","geo":{"latitude":47.605209,"longitude":22.363067,"target":"Stradă"}},{"code":"6962506","name":"Muzeul Etnografic Maghiar \"Sipos Lászlo\"/\"Sipos László\" Magyar Néprajzi Múzeum","geo":{"latitude":47.415063,"longitude":22.934474,"target":"Muzeu"}},{"code":"6927200","name":"Muzeul Portului Constanța","geo":{"latitude":44.161391,"longitude":28.6576,"target":"Muzeu"}},{"code":"6962507","name":"Muzeul De Artă Satu Mare","geo":{"latitude":47.791256,"longitude":22.875763,"target":"Muzeu"}},{"code":"6962508","name":"Casa Memorială \"Aloisie Tăutu\"","geo":{"latitude":47.718555,"longitude":23.189431,"target":"Muzeu"}},{"code":"7084500","name":"Grădina Zoologică","geo":{"latitude":44.51728,"longitude":26.10276,"target":"Muzeu"}},{"code":"7110700","name":"Muzeul \"Casa Săsească\" Livezile","geo":{"latitude":47.179625,"longitude":24.569263,"target":"Muzeu"}},{"code":"5171000004","name":"Muzeul De Cultură Și Artă Religioasă","geo":{"latitude":46.241546,"longitude":26.817753,"target":"Muzeu"}},{"code":"6960515","name":"Muzeul Memorial \"Nichita Stănescu\"","geo":{"latitude":44.946803,"longitude":26.029068,"target":"Muzeu"}},{"code":"6962509","name":"Atelier Memorial \"Paul Erdös\"","geo":{"latitude":47.792049,"longitude":22.885397,"target":"Stradă"}},{"code":"6962510","name":"Atelier Memorial \"Aurel Popp\"","geo":{"latitude":47.788477,"longitude":22.878713,"target":"Muzeu"}},{"code":"7300700","name":"Muzeul Național De Artă Contemporană","geo":{"latitude":44.428152,"longitude":26.08643,"target":"Muzeu"}},{"code":"5144000003","name":"Colecția De Obiecte Bisericești De Pe Lângă Biserica \"Sf. Nicolae\" Agnita","geo":{"latitude":45.972297,"longitude":24.629084,"target":"Muzeu"}},{"code":"5144000004","name":"Colecția De Obiecte Bisericești De Pe Lângă Biserica \"Sf. Nicolae\" Movile","geo":{"latitude":46.021772,"longitude":24.790825,"target":"Muzeu"}},{"code":"7540300","name":"Muzeul Național Al Poliției Române","geo":{"latitude":44.931115,"longitude":25.460495,"target":"Muzeu"}},{"code":"7300800","name":"Muzeul Național Al Hărților Și Cărții Vechi","geo":{"latitude":44.456947,"longitude":26.092831,"target":"Muzeu"}},{"code":"6946520","name":"Casa Memorială \"Lucian Blaga\"","geo":{"latitude":45.984765,"longitude":23.557145,"target":"Muzeu"}},{"code":"801003","name":"Colecția Muzeală A Bibliotecii Batthyaneum","geo":{"latitude":46.070492,"longitude":23.570453,"target":"Muzeu"}},{"code":"694651","name":"Colecția Muzeală Birchiș","geo":{"latitude":45.966558,"longitude":22.166672,"target":"Localitate"}},{"code":"7300212","name":"Muzeul De Artă \"Vasile Grigore - Pictor Și Colecționar\"","geo":{"latitude":44.442266,"longitude":26.108055,"target":"Muzeu"}},{"code":"6946518","name":"Muzeul Viei Și Vinului","geo":{"latitude":47.427914,"longitude":26.897581,"target":"Muzeu"}},{"code":"6932505","name":"Muzeul Olteniei. Secția De Istorie-Arheologie","geo":{"latitude":44.317373,"longitude":23.789753,"target":"Muzeu"}},{"code":"51620000107","name":"Colecția Mănăstirii \"Negru Vodă\"","geo":{"latitude":45.263806,"longitude":25.040161,"target":"Muzeu"}},{"code":"51620000109","name":"Mausoleul \"Mateiaș\"","geo":{"latitude":45.291416,"longitude":25.083786,"target":"Muzeu"}},{"code":"51620000110","name":"Casa Memorială \"Dumitru Și Alice Rosetti Tescanu - George Enescu\"","geo":{"latitude":46.511838,"longitude":26.649607,"target":"Muzeu"}},{"code":"51620000163","name":"Colecția Muzeală A Mănăstirii Rătești","geo":{"latitude":45.306972,"longitude":26.632828,"target":"Muzeu"}},{"code":"51620000115","name":"Muzeul Satului Ildia","geo":{"latitude":44.970107,"longitude":21.704638,"target":"Localitate"}},{"code":"51620000116","name":"Muzeul Sătesc Iclod","geo":{"latitude":46.98809,"longitude":23.812036,"target":"Localitate"}},{"code":"51620000118","name":"Casa Memorială \"Romulus Cioflec\"","geo":{"latitude":45.812854,"longitude":25.646772,"target":"Muzeu"}},{"code":"51620000120","name":"Colecția De Artă Plastică Cașinu Mic","geo":{"latitude":46.061262,"longitude":26.132777,"target":"Muzeu"}},{"code":"51620000122","name":"Muzeul \"Vasile Blendea\"","geo":{"latitude":44.929679,"longitude":25.456306,"target":"Muzeu"}},{"code":"51620000125","name":"Colecția Muzeală A Mănăstirii Galata","geo":{"latitude":47.146274,"longitude":27.568966,"target":"Muzeu"}},{"code":"51620000126","name":"Colecția Mănăstirii Golia","geo":{"latitude":47.16484,"longitude":27.589402,"target":"Muzeu"}},{"code":"51620000128","name":"Colecția Muzeală A Bisericii \"Trei Ierarhi\"","geo":{"latitude":47.159589,"longitude":27.584343,"target":"Muzeu"}},{"code":"51620000132","name":"Casa Memorială \"Ellie Wiesel\" - Muzeul Culturii Evreiești Din Maramureș","geo":{"latitude":47.92987,"longitude":23.894339,"target":"Muzeu"}},{"code":"51620000133","name":"Casa Memorială \"Stan Ion Pătraș\"","geo":{"latitude":47.973735,"longitude":23.698205,"target":"Muzeu"}},{"code":"51620000135","name":"Cula \"Tudor Vladimirescu\"","geo":{"latitude":44.66124,"longitude":22.722319,"target":"Muzeu"}},{"code":"51620000138","name":"Colecția Muzeală A Arhiepiscopiei Romanului Și Bacăului","geo":{"latitude":46.918204,"longitude":26.930118,"target":"Muzeu"}},{"code":"51620000139","name":"Muzeul \"Popa\"","geo":{"latitude":47.150766,"longitude":26.437475,"target":"Muzeu"}},{"code":"51620000140","name":"Muzeul Mănăstirii Brâncoveni","geo":{"latitude":44.304058,"longitude":24.305893,"target":"Muzeu"}},{"code":"51620000143","name":"Muzeul Moților","geo":{"latitude":47.614944,"longitude":22.228583,"target":"Muzeu"}},{"code":"51620000146","name":"Muzeul \"Sigmund Dachler\"","geo":{"latitude":45.671374,"longitude":24.181041,"target":"Localitate"}},{"code":"51620000144","name":"Casa Memorială \"Hermann N. Oberth\"","geo":{"latitude":46.158528,"longitude":24.346116,"target":"Muzeu"}},{"code":"51620000145","name":"Colecția Bisericii Evanghelice Biertan","geo":{"latitude":46.135296,"longitude":24.521263,"target":"Muzeu"}},{"code":"51620000147","name":"Colecția Etnografică Bucovineană \"Ioan Grămadă\"","geo":{"latitude":47.520691,"longitude":25.594674,"target":"Stradă"}},{"code":"51620000148","name":"Colecția Muzeală A Arhiepiscopiei Sucevei Și Rădăuților","geo":{"latitude":47.641935,"longitude":26.262781,"target":"Muzeu"}},{"code":"51620000150","name":"Muzeul Episcopiei Romano-Catolice Timișoara","geo":{"latitude":45.75622,"longitude":21.229888,"target":"Muzeu"}},{"code":"51620000151","name":"Colecția Muzeală A Mitropoliei Ortodoxe A Banatului","geo":{"latitude":45.750649,"longitude":21.22422,"target":"Muzeu"}},{"code":"51620000152","name":"Muzeul Stațiunii Buziaș","geo":{"latitude":45.649668,"longitude":21.59561,"target":"Localitate"}},{"code":"51620000153","name":"Muzeul \"Farul Vechi\" Sulina","geo":{"latitude":45.155275,"longitude":29.663102,"target":"Muzeu"}},{"code":"51620000155","name":"Colecția Muzeală A Episcopiei De Râmnic","geo":{"latitude":45.109408,"longitude":24.362392,"target":"Muzeu"}},{"code":"51620000156","name":"Colecția Muzeală A Mănăstirii Arnota","geo":{"latitude":45.196664,"longitude":24.044698,"target":"Muzeu"}},{"code":"51620000168","name":"Punct Muzeal \"Ioan Vodă\"","geo":{"latitude":45.60086,"longitude":27.244018,"target":"Localitate"}},{"code":"51620000160","name":"Colecția De Artă \"Ligia Și Pompiliu Macovei\"","geo":{"latitude":44.421566,"longitude":26.095684,"target":"Muzeu"}},{"code":"51620000161","name":"Colecția De Antichități A Institutului De Arheologie \"Vasile Pârvan\"","geo":{"latitude":44.44873,"longitude":26.091923,"target":"Stradă"}},{"code":"51620000169","name":"Muzeul De Istorie Al Universității \"Babeș-Bolyai\"","geo":{"latitude":46.767411,"longitude":23.592148,"target":"Muzeu"}},{"code":"51620000170","name":"Vivariul Universității \"Babeș-Bolyai\"","geo":{"latitude":46.763511,"longitude":23.580011,"target":"Muzeu"}},{"code":"51620000172","name":"Casa-Muzeu \"George Muntean\"","geo":{"latitude":47.915497,"longitude":25.730561,"target":"Muzeu"}},{"code":"51620000173","name":"Muzeul Memorial \"Constantin Și Ion Stere\"","geo":{"latitude":44.977264,"longitude":26.058661,"target":"Muzeu"}},{"code":"51620000174","name":"Muzeul Sătesc Sângeru","geo":{"latitude":45.130855,"longitude":26.342793,"target":"Localitate"}},{"code":"51620000176","name":"Casa Memorială \"Petõfi Sándor\"","geo":{"latitude":46.232329,"longitude":24.861447,"target":"Muzeu"}},{"code":"51620000177","name":"Muzeul Istoriei, Culturii Și Spiritualității Creștine De La Dunărea De Jos","geo":{"latitude":45.450639,"longitude":28.050401,"target":"Muzeu"}},{"code":"51620000178","name":"Colecția Muzeală A Mănăstirii Buciumeni","geo":{"latitude":46.034221,"longitude":27.292036,"target":"Muzeu"}},{"code":"51620000180","name":"Colecția Muzeală A Mănăstirii Vladimirești","geo":{"latitude":45.594513,"longitude":27.663779,"target":"Muzeu"}},{"code":"51620000181","name":"Colecția Muzeală A Bisericii Ortodoxe \"Sf. Nicolae\" Berești","geo":{"latitude":46.086952,"longitude":27.889531,"target":"Localitate"}},{"code":"51620000182","name":"Casa Memorială A Arhimandritului Dometie Manolache","geo":{"latitude":45.045879,"longitude":27.498039,"target":"Localitate"}},{"code":"51620000183","name":"Colecția Muzeală A Bisericii \"Adormirea Maicii Domnului\" Roșcani","geo":{"latitude":45.911069,"longitude":28.020046,"target":"Localitate"}},{"code":"51620000184","name":"Muzeul Universității Politehnica","geo":{"latitude":44.448972,"longitude":26.07883,"target":"Muzeu"}},{"code":"51620000185","name":"Muzeul De Etnografie Și Istorie Vișeu De Sus","geo":{"latitude":47.70722,"longitude":24.429559,"target":"Muzeu"}},{"code":"51620000187","name":"Muzeul Apei","geo":{"latitude":46.752233,"longitude":23.514626,"target":"Muzeu"}},{"code":"51620000188","name":"Muzeul Național Filatelic","geo":{"latitude":44.431284,"longitude":26.097183,"target":"Muzeu"}},{"code":"51620000190","name":"Muzeul \"Casa Cuza Vodă\"","geo":{"latitude":45.441322,"longitude":28.05767,"target":"Muzeu"}},{"code":"51210012301","name":"Colecția Muzeală A Mănăstirii Ortodoxe Dealu","geo":{"latitude":44.95885,"longitude":25.481852,"target":"Muzeu"}},{"code":"51620000191","name":"Muzeul Mănăstirii Clocociov","geo":{"latitude":44.411605,"longitude":24.364275,"target":"Muzeu"}},{"code":"51620000193","name":"Muzeul Oltului Și Al Mureșului Superior","geo":{"latitude":46.356573,"longitude":25.804216,"target":"Stradă"}},{"code":"51620000192","name":"Casa Memorială \"Iancu Jianu\"","geo":{"latitude":44.109067,"longitude":24.348888,"target":"Muzeu"}},{"code":"51620000194","name":"Muzeul Carsium","geo":{"latitude":44.685919,"longitude":27.948227,"target":"Stradă"}},{"code":"51520000502","name":"Colecția Muzeală A Mănăstirii Bistrița","geo":{"latitude":46.957141,"longitude":26.28923,"target":"Muzeu"}},{"code":"51620000196","name":"Muzeul De Artă Contemporană \"George Apostu\"","geo":{"latitude":46.566411,"longitude":26.923784,"target":"Muzeu"}},{"code":"51620000197","name":"Colecția Fundației Naționale \"George Călinescu\"","geo":{"latitude":46.243785,"longitude":26.76372,"target":"Muzeu"}},{"code":"51620000198","name":"Muzeul De Istorie Tîrgu Ocna","geo":{"latitude":46.279865,"longitude":26.606354,"target":"Muzeu"}},{"code":"51620000199","name":"Muzeul Sătesc Școlar Măgura","geo":{"latitude":46.558539,"longitude":26.85165,"target":"Localitate"}},{"code":"51620000200","name":"Casa-Muzeu \"Grigore Tăbăcaru\"","geo":{"latitude":46.626189,"longitude":26.852856,"target":"Localitate"}},{"code":"51620000202","name":"Muzeul Etnografic Poiana Sărată","geo":{"latitude":46.142798,"longitude":26.455291,"target":"Stradă"}},{"code":"51620000204","name":"Monumentul-Muzeu \"Măgura\"","geo":{"latitude":46.270418,"longitude":26.589029,"target":"Muzeu"}},{"code":"51620000205","name":"Colecția De Sculptură \"Vasile Catană\"","geo":{"latitude":46.551891,"longitude":26.464345,"target":"Localitate"}},{"code":"51620000207","name":"Casa Memorială \"Ștefan Baciu\"","geo":{"latitude":45.637719,"longitude":25.586365,"target":"Muzeu"}},{"code":"51620000208","name":"Muzeul Comunei Cenad","geo":{"latitude":46.13329,"longitude":20.583433,"target":"Localitate"}},{"code":"51620000209","name":"Casa Memorială \"Dr. Karl Diel\"","geo":{"latitude":45.785959,"longitude":20.717955,"target":"Muzeu"}},{"code":"51620000210","name":"Muzeul Pompierilor \"Florian\"","geo":{"latitude":45.79401,"longitude":20.716562,"target":"Muzeu"}},{"code":"51620000211","name":"Casa Memorială \"Anton Și Maria Popescu\"","geo":{"latitude":44.216892,"longitude":24.989367,"target":"Localitate"}},{"code":"51620000213","name":"Centrul Memorial \"Marin Preda\"","geo":{"latitude":44.379103,"longitude":25.011817,"target":"Muzeu"}},{"code":"51620000215","name":"Muzeul Memorial \"Liviu Rebreanu\"","geo":{"latitude":43.926833,"longitude":25.084881,"target":"Localitate"}},{"code":"51620000216","name":"Expoziția Memorială \"Gala Galaction\"","geo":{"latitude":44.215402,"longitude":24.88657,"target":"Muzeu"}},{"code":"51620000217","name":"Muzeul Memorial \"Mihai Rădoi\"","geo":{"latitude":43.921352,"longitude":25.085757,"target":"Localitate"}},{"code":"51620000218","name":"Muzeul \"Axiopolis\"","geo":{"latitude":44.342264,"longitude":28.033735,"target":"Muzeu"}},{"code":"6906505","name":"Centrul Cultural Memorial \"Dr. Gheorghe Telea-Bologa\"","geo":{"latitude":45.80378,"longitude":24.577954,"target":"Localitate"}},{"code":"51620000219","name":"Muzeul Municipal Curtea De Argeș. Secția De Etnografie Și Artă Populară","geo":{"latitude":45.143767,"longitude":24.674963,"target":"Muzeu"}},{"code":"7300209","name":"Muzeul \"Dr. Ioan Și Nicolae Kalinderu\"","geo":{"latitude":44.439685,"longitude":26.092534,"target":"Muzeu"}},{"code":"7411111","name":"Muzeul De Paleontologie-Stratigrafie Al Universității \"Babeș-Bolyai\"","geo":{"latitude":46.767764,"longitude":23.592094,"target":"Muzeu"}},{"code":"7055502","name":"Galeria De Artă \"Nagy Imre\"","geo":{"latitude":46.543459,"longitude":24.563047,"target":"Muzeu"}},{"code":"7060700","name":"Grădina Zoologică Târgu Mureș","geo":{"latitude":46.551959,"longitude":24.589826,"target":"Muzeu"}},{"code":"6916508","name":"Muzeul Ianca","geo":{"latitude":45.134942,"longitude":27.480815,"target":"Stradă"}},{"code":"7060300","name":"Grădina Zoologică Ploiești","geo":{"latitude":44.976444,"longitude":26.055199,"target":"Muzeu"}},{"code":"7045000","name":"Grădina Zoologică \"Pădurea Verde\"","geo":{"latitude":45.780091,"longitude":21.266538,"target":"Muzeu"}},{"code":"7065000","name":"Grădina Zoologică Călărași","geo":{"latitude":44.194818,"longitude":27.319408,"target":"Muzeu"}},{"code":"7075000","name":"Grădina Zoologică Hunedoara","geo":{"latitude":45.750003,"longitude":22.915874,"target":"Muzeu"}},{"code":"6973600","name":"Muzeul Presei \"Sever Bocu\"","geo":{"latitude":45.789332,"longitude":20.724827,"target":"Muzeu"}},{"code":"6934505","name":"Muzeul \"Casa Colecțiilor\"","geo":{"latitude":45.439725,"longitude":28.049342,"target":"Muzeu"}},{"code":"6934506","name":"Casa Memorială \"Hortensia Papadat Bengescu\"","geo":{"latitude":45.673269,"longitude":27.523862,"target":"Muzeu"}},{"code":"6956600","name":"Muzeul De Artă \"Iulia Hălăucescu\"","geo":{"latitude":46.90401,"longitude":26.110163,"target":"Localitate"}},{"code":"6956800","name":"Muzeul Memorial \"Vasile Conta\"","geo":{"latitude":47.109545,"longitude":26.336592,"target":"Localitate"}},{"code":"7057600","name":"Muzeul Zoologic \"Constantin Romanescu\"","geo":{"latitude":47.135139,"longitude":25.876026,"target":"Localitate"}},{"code":"7156400","name":"Punct Muzeistic Etnografic \"Ioan Luca\"","geo":{"latitude":47.155796,"longitude":25.839813,"target":"Localitate"}},{"code":"650740","name":"Colecția Muzeală \"Ioan Siminicianu\"","geo":{"latitude":47.653131,"longitude":26.575973,"target":"Localitate"}},{"code":"650620","name":"Colecția De Etnografie Și Istorie Locală Costești","geo":{"latitude":45.694795,"longitude":23.161951,"target":"Localitate"}},{"code":"650630","name":"Colecția Muzeală Particulară Peregu Mare","geo":{"latitude":46.233828,"longitude":20.906935,"target":"Localitate"}},{"code":"650640","name":"Punct Muzeal Al Uniunii Democrate A Tătarilor Turco-Musulmani Din România","geo":{"latitude":44.194227,"longitude":28.630742,"target":"Muzeu"}},{"code":"650650","name":"Casa Memorială \"Dositei Dimitrie Obradović\"","geo":{"latitude":45.513711,"longitude":21.125846,"target":"Muzeu"}},{"code":"650660","name":"Casa Muzeală Satu Mare","geo":{"latitude":46.339524,"longitude":25.379992,"target":"Stradă"}},{"code":"650720","name":"Colecția Țăranului Cărășan","geo":{"latitude":45.121953,"longitude":21.592699,"target":"Muzeu"}},{"code":"7429110","name":"Muzeul Școlar Mahmudia","geo":{"latitude":45.086867,"longitude":29.090728,"target":"Muzeu"}},{"code":"650670","name":"Muzeul Școlar Paltinu","geo":{"latitude":47.638477,"longitude":25.517404,"target":"Localitate"}},{"code":"7051507","name":"Casa Memorială \"Ilie Lazăr\"","geo":{"latitude":47.821424,"longitude":23.930195,"target":"Muzeu"}},{"code":"960000185","name":"Colecția Etnografică A Familiei Pleș Din Ieud","geo":{"latitude":47.680022,"longitude":24.235718,"target":"Muzeu"}},{"code":"7051100","name":"Muzeul Born Și Papp","geo":{"latitude":47.664541,"longitude":23.854216,"target":"Muzeu"}},{"code":"7152100","name":"Colecția Totfalusi Kis Miklos","geo":{"latitude":47.665206,"longitude":23.4657,"target":"Muzeu"}},{"code":"7152200","name":"Muzeul Satului - \"Acasă\"","geo":{"latitude":47.66508,"longitude":23.465413,"target":"Muzeu"}},{"code":"71147483","name":"Colecția Muzeală Petia","geo":{"latitude":47.510803,"longitude":26.31724,"target":"Muzeu"}},{"code":"96727385","name":"Muzeul Ouălor Încondeiate \"Lucia Condrea\"","geo":{"latitude":47.686701,"longitude":25.541516,"target":"Muzeu"}},{"code":"96146502","name":"Colecția De Linguri De Lemn \"Ioan Și Elisabeta Țugui\"","geo":{"latitude":47.532734,"longitude":25.55139,"target":"Muzeu"}},{"code":"96150944","name":"Muzeul Oului","geo":{"latitude":47.567462,"longitude":25.694122,"target":"Muzeu"}},{"code":"6934507","name":"Casa Rurală \"Ioan Avram Dunăreanu\"","geo":{"latitude":45.72642,"longitude":27.823227,"target":"Localitate"}},{"code":"6973505","name":"Muzeul De Transport Public \"Corneliu Miklosi\" - Societatea De Transport Public Timișoara","geo":{"latitude":45.762854,"longitude":21.246052,"target":"Muzeu"}},{"code":"6908504","name":"Muzeul Orășenesc De Istorie Și Etnografie \"Andrássy Ernö\"","geo":{"latitude":47.51407,"longitude":22.125161,"target":"Stradă"}},{"code":"6908505","name":"Muzeul Orașului Oradea - Complex Cultural","geo":{"latitude":47.05117,"longitude":21.943038,"target":"Muzeu"}},{"code":"950515","name":"Muzeul De Icoane Și Carte Veche \"Episcopul Gavril De Bârsana\"","geo":{"latitude":47.793372,"longitude":24.091959,"target":"Muzeu"}},{"code":"6960507","name":"Expoziția Permanentă \"Tohani - Popas Pe Drumul Vinului\"","geo":{"latitude":45.066224,"longitude":26.432179,"target":"Localitate"}},{"code":"6904506","name":"Planetariul Pitești","geo":{"latitude":44.854809,"longitude":24.871009,"target":"Muzeu"}},{"code":"6904507","name":"Muzeul Sportului Argeșean","geo":{"latitude":44.855384,"longitude":24.870381,"target":"Muzeu"}},{"code":"51620000117","name":"Muzeul De Mineralogie Al Universității \"Babeș-Bolyai\"","geo":{"latitude":46.767554,"longitude":23.591347,"target":"Muzeu"}},{"code":"6928514","name":"Muzeul Etnografic Ceangăiesc","geo":{"latitude":45.892118,"longitude":26.183064,"target":"Muzeu"}},{"code":"6938509","name":"Colecția De Etnografie \"Casa Cartianu\"","geo":{"latitude":45.117207,"longitude":23.315658,"target":"Muzeu"}},{"code":"6930516","name":"Expoziția \"Alexandru Ciorănescu\"","geo":{"latitude":45.212094,"longitude":25.435877,"target":"Localitate"}},{"code":"6960516","name":"Casa Memorială \"Nicolae Tonitza\"","geo":{"latitude":45.188053,"longitude":26.036954,"target":"Localitate"}},{"code":"7423219","name":"Colecția Muzeală Iepurești","geo":{"latitude":44.257807,"longitude":25.883763,"target":"Muzeu"}},{"code":"802035","name":"Muzeul Bolyai","geo":{"latitude":46.542719,"longitude":24.565277,"target":"Muzeu"}},{"code":"7105101","name":"Muzeul De Etnografie Galeș","geo":{"latitude":45.266663,"longitude":24.778212,"target":"Localitate"}},{"code":"7427436","name":"Muzeul Muntenii De Sus","geo":{"latitude":46.689356,"longitude":27.767503,"target":"Localitate"}},{"code":"6914703","name":"Muzeul Național Bran","geo":{"latitude":45.513892,"longitude":25.366947,"target":"Muzeu"}},{"code":"6950514","name":"Muzeul Florean","geo":{"latitude":47.656878,"longitude":23.534327,"target":"Muzeu"}},{"code":"6908502","name":"Muzeul Memorial \"Aurel Lazăr\"","geo":{"latitude":47.056609,"longitude":21.934222,"target":"Muzeu"}},{"code":"6908506","name":"Muzeul De Științe Naturale Tinca","geo":{"latitude":46.772845,"longitude":21.938449,"target":"Muzeu"}},{"code":"6908507","name":"Muzeul Memorial Kazinczy Ferenc, Fráter Lóránd Și Csiha Kálmán","geo":{"latitude":47.495678,"longitude":22.088209,"target":"Muzeu"}},{"code":"6908508","name":"Muzeul De Etnografie \"Horea Și Aurel Flutur\"","geo":{"latitude":46.556162,"longitude":22.564766,"target":"Muzeu"}},{"code":"6908509","name":"Colecția De Etnografie Galoșpetreu","geo":{"latitude":47.482325,"longitude":22.215941,"target":"Localitate"}},{"code":"6908510","name":"Muzeul Militar Național \"Regele Ferdinand I\". Filiala Oradea","geo":{"latitude":47.046636,"longitude":21.923391,"target":"Muzeu"}},{"code":"6981513","name":"Muzeul Unirii Focșani","geo":{"latitude":45.698787,"longitude":27.190348,"target":"Muzeu"}},{"code":"7065500","name":"Muzeul Municipal Fetești","geo":{"latitude":44.367184,"longitude":27.830761,"target":"Stradă"}},{"code":"7139900","name":"Colecția Muzeală Săcelu","geo":{"latitude":45.081077,"longitude":23.54843,"target":"Localitate"}},